Nome Câmera,Órgão,Empresa Contratada,Gestor / Fiscal Contrato,N° do Contrato,Data inicio,Vigência Contrato,Sistema VMS,Qtd FIXA,Qtd PTZ,Foco,Verificar,Analítco 1,Analítco 2,Analítco 3,Endereço,Regional,latitude,longitude,Bairro,Código
AEROPORTO 01,AMC,AEROPORTO,-,-,-,-,SECUROS,,1,Espaço Público,FALSE,,,,"Av. Senador Carlos Jereissati, 3000 - Serrinha",SER 4,-3.778752,-38.541198,Aeroporto,AEROPORTO
AEROPORTO 02,AMC,AEROPORTO,-,-,-,-,SECUROS,,1,Espaço Público,FALSE,,,,"Av. Senador Carlos Jereissati, 3000 - Serrinha",SER 4,-3.7794421,-38.5408205,Aeroporto,AEROPORTO
AEROPORTO 03,AMC,AEROPORTO,-,-,-,-,SECUROS,,1,Espaço Público,FALSE,,,,"Av. Senador Carlos Jereissati, 3000 - Serrinha",SER 4,-3.780146,-38.538467,Aeroporto,AEROPORTO
AEROPORTO 04,AMC,AEROPORTO,-,-,-,-,SECUROS,,1,Espaço Público,FALSE,,,,"Av. Senador Carlos Jereissati, 3000 - Serrinha",SER 4,-3.779857,-38.539478,Aeroporto,AEROPORTO
AEROPORTO 05,AMC,AEROPORTO,-,-,-,-,SECUROS,,1,Espaço Público,FALSE,,,,"Av. Senador Carlos Jereissati, 3000 - Serrinha",SER 4,-3.780566,-38.537527,Aeroporto,AEROPORTO
AEROPORTO 06,AMC,AEROPORTO,-,-,-,-,SECUROS,,1,Espaço Público,FALSE,,,,"Av. Senador Carlos Jereissati, 3000 - Serrinha",SER 4,-3.781559,-38.536391,Aeroporto,AEROPORTO
AEROPORTO 07,AMC,AEROPORTO,-,-,-,-,SECUROS,,1,Espaço Público,FALSE,,,,"Av. Senador Carlos Jereissati, 3000 - Serrinha",SER 4,-3.779988,-38.539036,Aeroporto,AEROPORTO
AEROPORTO 08,AMC,AEROPORTO,-,-,-,-,SECUROS,,1,Espaço Público,FALSE,,,,"Av. Senador Carlos Jereissati, 3000 - Serrinha",SER 4,-3.779499,-38.539724,Aeroporto,AEROPORTO
AMCPPS01 AV. DESEMBARGADOR GONZAGA - IGREJA DA GLORIA,AMC,DB3,Antonio Luiz Junior Araujo,18/2020,11/12/2020,15/12/2025,SECUROS,,1,Espaço Público,FALSE,Segurança,,,"Av. Desembargador Gonzaga, 1058 - Cidade dos Funcionários",SER 6,-3.796588,-38.5003016,Cidade dos Funcionários,AMCPPS01
AMCPPS02 AV. GODOFREDO MACIEL - EM FRENTE AO DETRAN,AMC,DB3,Antonio Luiz Junior Araujo,18/2020,11/12/2020,15/12/2025,SECUROS,,1,Espaço Público,FALSE,Segurança,,,"Av. Godofredo Maciel, 2900 - Maraponga",SER 10,-3.8015894,-38.5716125,Maraponga,AMCPPS02
AMCPPS03.1 AV. DESEMBARGADOR MOREIRA - PRAÇA DA IMPRENSA,AMC,URBIMIDIA,-,-,-,-,SECUROS,1,,Espaço Público,FALSE,Segurança,,,"Av. Des. Moreira, 2346 - Dionísio Torres",SER 2,-3.7463122,-38.5016743,Dionísio Torres,AMCPPS03.1
AMCPPS04 AV. SILAS MUNGUBA - IGREJA CANAA,AMC,DB3,Antonio Luiz Junior Araujo,18/2020,11/12/2020,15/12/2025,SECUROS,,1,Espaço Público,FALSE,Segurança,,,"Av. Dr. Silas Munguba, 5556 - Passaré",SER 8,-3.8025863,-38.5290677,Passaré,AMCPPS04
AMCPPS05.1 AV. LUCIANO CARNEIRO 345 - UECE,AMC,URBIMIDIA,-,-,-,-,SECUROS,1,,Espaço Público,FALSE,Segurança,,,Av. Luciano Carneiro 345,SER 4,-3.7508228279381424,-38.53229999152281,Fátima,AMCPPS05.1
AMCPPS06.1 AV. BORGES DE MELO - BASE AEREA,AMC,URBIMIDIA,-,-,-,-,SECUROS,1,,Espaço Público,FALSE,Segurança,,,"Av. Borges de Melo, 205 - Aeroporto",SER 4,-3.7614552,-38.5199168,Aeroporto,AMCPPS06.1
AMCPPS07.1 AV. DOS EXPEDICIONARIOS 444 - ASSAI,AMC,URBIMIDIA,-,-,-,-,SECUROS,1,,Espaço Público,FALSE,Segurança,,,"Av. dos Expedicionários, 4364 - Jardim América",SER 4,-3.7562251,-38.5386232,Jardim América,AMCPPS07.1
AMCPPS08.1 AV. 13 DE MAIO - PRACA DA GENTILANDIA,AMC,URBIMIDIA,-,-,-,-,SECUROS,1,,Espaço Público,FALSE,Segurança,,,"Av. Treze de Maio, 2311 - Benfica",SER 4,-3.7425956,-38.5373336,Benfica,AMCPPS08.1
AMCPPS09.1 AV. ALBERTO CRAVEIRO 900,AMC,URBIMIDIA,-,-,-,-,SECUROS,1,,Espaço Público,FALSE,Segurança,,,"Av. Alberto Craveiro, 28 - Dias Macedo",SER 8,-3.7860914,-38.5169801,Dias Macedo,AMCPPS09.1
AMCPPS10.1 AV. DOM LUIS 703 - ESPACO ABERTO,AMC,URBIMIDIA,-,-,-,-,SECUROS,1,,Espaço Público,FALSE,Segurança,,,"Av. Dom LuíS, 703 - Aldeota",SER 2,-3.7340299,-38.4947819,Meireles,AMCPPS10.1
AMCPPS11.1 AV. SENADOR FERNANDES TAVORA 325 - SHOPPING JOKEY,AMC,URBIMIDIA,-,-,-,-,SECUROS,1,,Espaço Público,FALSE,Segurança,,,"Av. Senador Fernandes Távora, 236 - Jóquei Clube",SER 11,-3.7658850,-38.5751327,Jóquei Clube,AMCPPS11.1
AMCPPS12.1 AV. ABOLICAO 2727 - NAUTICO,AMC,URBIMIDIA,-,-,-,-,SECUROS,1,,Espaço Público,FALSE,Segurança,,,"Av. da Abolição, 2708 - Meireles",SER 2,-3.7273710,-38.4947736,Meireles,AMCPPS12.1
AMCPPS13.1 AV. BARAO DE STUDART 2406 (TORRE QUIXADA),AMC,URBIMIDIA,-,-,-,-,SECUROS,1,,Espaço Público,FALSE,Segurança,,,"Av. Barão de Studart, 2406 - Pici",SER 2,-3.7446536,-38.5098827,Joaquim Távora,AMCPPS13.1
AMCPPS14.1 AV. DESEMBARGADOR MOREIRA (PRACA DAS FLORES),AMC,URBIMIDIA,-,-,-,-,SECUROS,1,,Espaço Público,FALSE,Segurança,,,"Av. Des. Moreira, 1437 - Aldeota",SER 2,-3.7388063,-38.4990584,Aldeota,AMCPPS14.1
AMCPPS15.1 AV. 13 DE MAIO 100,AMC,URBIMIDIA,-,-,-,-,SECUROS,1,,Espaço Público,FALSE,Segurança,,,"Av. Treze de Maio, 100 - Fátima",SER 4,-3.7535599,-38.5213324,Fátima,AMCPPS15.1
AMCPPS16.1 AV. ENGENHEIRO SANTANA JUNIOR 1901,AMC,URBIMIDIA,-,-,-,-,SECUROS,1,,Espaço Público,FALSE,Segurança,,,"Av. Eng. Santana Jr., 1901 - Cocó",SER 7,-3.742452,-38.486498,Cocó,AMCPPS16.1
AMCPPS17.1 AV. PONTES VIEIRA 2080 (ASSEMBELIA LEGISLATIVA),AMC,URBIMIDIA,-,-,-,-,SECUROS,1,,Espaço Público,FALSE,Segurança,,,"Av. Pontes Vieira, 2080 - Dionísio Torres",SER 2,-3.7513690,-38.5026668,Dionísio Torres,AMCPPS17.1
AMCPPS18.1 AV. JOVITA FEITOSA 1077 (PRACA ARI DE SA),AMC,URBIMIDIA,-,-,-,-,SECUROS,1,,Espaço Público,FALSE,Segurança,,,"Av. Jovita Feitosa, 1077 - Amadeu Furtado",SER 3,-3.739226,-38.552899,Amadeu Furtado,AMCPPS18.1
AMCPPS19.1 AV. PRESIDENTE JUSCELIN KUBITSCHEK 3300 (EEMTI DEP. PAULINO ROCHA),AMC,URBIMIDIA,-,-,-,-,SECUROS,1,,Espaço Público,FALSE,Segurança,,,"Av. Pres. Juscelino Kubitschek, 3300 - Passaré",SER 8,-3.808648,-38.525801,Passaré,AMCPPS19.1
AMCPPS20.1 AV. JOVITA FEITOSA 2720 (IGREJA SANTO AFONSO),AMC,URBIMIDIA,-,-,-,-,SECUROS,1,,Espaço Público,FALSE,Segurança,,,"Av. Jovita Feitosa, 2720 - Parquelândia, Fortaleza",SER 3,-3.740930,-38.561376,Amadeu Furtado,AMCPPS20.1
AMCPPS21.1 AV. 13 DE MAIO 2821 (SHOPPING BENFICA),AMC,URBIMIDIA,-,-,-,-,SECUROS,1,,Espaço Público,FALSE,Segurança,,,"Av. Treze de Maio, 2821 - Fátima, Fortaleza",SER 4,-3.739721,-38.540458,Benfica,AMCPPS21.1
AMCPPS22.1 AV. SANGERTO HERMINIO 2046 (POLO DE LAZER),AMC,URBIMIDIA,-,-,-,-,SECUROS,1,,Espaço Público,FALSE,Segurança,,,"Av. Sgt. Hermínio Sampaio, 2046 - Monte Castelo",SER 3,-3.726235,-38.559301,São Gerardo,AMCPPS22.1
AMCPPS23.1 AV. HUMBERTO MONTE 233 (CAMPUS DO PICI),AMC,URBIMIDIA,-,-,-,-,SECUROS,1,,Espaço Público,FALSE,Segurança,,,"Av. Humberto Monte, 233 - Rodolfo Teófilo",SER 11,-3.739363,-38.568768,Pici,AMCPPS23.1
AMCPPS24.1 AV. JOSE BASTOS 3390 (HEMOCE),AMC,URBIMIDIA,-,-,-,-,SECUROS,1,,Espaço Público,FALSE,Segurança,,,"R. José Bastos, 3390 - Rodolfo Teófilo",SER 3,-3.74921,-38.549858,Rodolfo Teófilo,AMCPPS24.1
AMCPPS25.1 AV. PONTES VIEIRA 404 (PRACA JOAO TAVORA - MERCADO DAS FLORES,AMC,URBIMIDIA,-,-,-,-,SECUROS,1,,Espaço Público,FALSE,Segurança,,,"Av. Pontes Vieira, 404 - São João do Tauape",SER 2,-3.752966,-38.516617,Joaquim Távora,AMCPPS25.1
AMCPPS26.1 AV. SANTOS DUMONT 3601 (SUPERMERCADO GUARA),AMC,URBIMIDIA,-,-,-,-,SECUROS,1,,Espaço Público,FALSE,Segurança,,,"Av. Santos Dumont, 3601 - Centro",SER 2,-3.738012,-38.493152,Aldeota,AMCPPS26.1
AMCPPS27.1 AV. SANTOS DUMONT 3130 (CENTER UM),AMC,URBIMIDIA,-,-,-,-,SECUROS,1,,Espaço Público,FALSE,Segurança,,,"Av. Santos Dumont, 3130 - Aldeota",SER 2,-3.73685,-38.496677,Aldeota,AMCPPS27.1
AMCPPS28.1 AV. GODOFREDO MACIEL 1155 (CARNEIRO PRIME),AMC,URBIMIDIA,-,-,-,-,SECUROS,1,,Espaço Público,FALSE,Segurança,,,"Av. Godofredo Maciel, 1155 - Itaperi",SER 8,-3.786129,-38.566544,Itaperi,AMCPPS28.1
AMCPPS29.1 RUA SENADOR POMPEU 1714 (IJF),AMC,URBIMIDIA,-,-,-,-,SECUROS,1,,Espaço Público,FALSE,Segurança,,,"R. Sen. Pompeu, 1714 - Centro",SER 12,-3.733856,-38.531779,Centro,AMCPPS29.1
AMCPPS30.1 RUA 69 207 (CUCA JOSE WALTER),AMC,URBIMIDIA,-,-,-,-,SECUROS,1,,Espaço Público,FALSE,Segurança,,,"R. 69, 207 - Pref. José Walter",SER 8,-3.830564,-38.554627,Prefeito José Walter,AMCPPS30.1
AMCPPS31.1 RUA PROFESSOR GLAUCO LOBO 57 (CUCA MONDUBIM),AMC,URBIMIDIA,-,-,-,-,SECUROS,1,,Espaço Público,FALSE,Segurança,,,"R. Prof. Glauco Lobo, 57 - Manuel Sátiro",SER 10,-3.806866,-38.580098,Novo Mondubim,AMCPPS31.1
AMCPPS32.1 AV. SILAS MUNGUBA 450 (G BARBOSA),AMC,URBIMIDIA,-,-,-,-,SECUROS,1,,Espaço Público,FALSE,Segurança,,,"Av. Dr. Silas Munguba, 450 - Parangaba",SER 4,-3.778813,-38.561164,Parangaba,AMCPPS32.1
AMCPPS33.1 AV. GODOFREDO MACIEL 1945 (COMETA SUPERMERCADO),AMC,URBIMIDIA,-,-,-,-,SECUROS,1,,Espaço Público,FALSE,Segurança,,,"Av. Godofredo Maciel, 173 - Maraponga",SER 10,-3.791762,-38.567319,Maraponga,AMCPPS33.1
AMCPPS34.1 AV. CORONEL CARVALHO 1751 (DROGASIL),AMC,URBIMIDIA,-,-,-,-,SECUROS,1,,Espaço Público,FALSE,Segurança,,,"Avenida Cel Carvalho, 1751",SER 1,-3.717881,-38.587726,Jardim Iracema,AMCPPS34.1
AMCPPS35.1 AV. BERNARDO MANOEL 9966 (TEXTIL BEZERRA DE MENEZES),AMC,URBIMIDIA,-,-,-,-,SECUROS,1,,Espaço Público,FALSE,Segurança,,,"Av. Bernardo Manuel, 9966 - Rachel de Queiroz",SER 8,-3.805273,-38.553316,Parque Dois Irmãos,AMCPPS35.1
AMCPPS36.1 AV. BARAO DE STUDART 800 (UNIMED),AMC,URBIMIDIA,-,-,-,-,SECUROS,1,,Espaço Público,FALSE,Segurança,,,"Av. Barão de Studart, 800 - Meireles",SER 2,-3.7311964,-38.505570,Aldeota,AMCPPS36.1
AMCPPS37.1 AV. GOVERNADOR RAUL BARBOSA 3059 (OPOSTO AO FELLINI),AMC,URBIMIDIA,-,-,-,-,SECUROS,1,,Espaço Público,FALSE,Segurança,,,"Av. Governador Raul Barbosa, 3059 - São João do Tauape",SER 2,-3.7540391,-38.504060,Tauape,AMCPPS37.1
AMCPPS38.1 AV. FERNANDES TAVORA 2432 (UPA),AMC,URBIMIDIA,-,-,-,-,SECUROS,1,,Espaço Público,FALSE,Segurança,,,"Av. Senador Fernandes Távora, 2432 - Henrique Jorge",SER 11,-3.7559445,-38.594277,Autran Nunes,AMCPPS38.1
AMCPPS39.1 AV. LINEU MACHADO 162 (HOSPITAL DA MULHER),AMC,URBIMIDIA,-,-,-,-,SECUROS,1,,Espaço Público,FALSE,Segurança,,,"Av. Lineu Machado, 152 - Jóquei Clube",SER 11,-3.7619369,-38.574713,Jóquei Clube,AMCPPS39.1
AMCPPS40.1 AV. DOMINGOS OLIMPIO 1275 (CASA DO BENFICA),AMC,URBIMIDIA,-,-,-,-,SECUROS,1,,Espaço Público,FALSE,Segurança,,,"Av. Domingos Olímpio, 1250 - José Bonifacio",SER 4,-3.7352878,-38.534834,Benfica,AMCPPS40.1
AMCPPS41.1 AV. DESEMBARRGADOR MOREIRA 2120 (EQUATORIAL TRADE CENTER),AMC,URBIMIDIA,-,-,-,-,SECUROS,1,,Espaço Público,FALSE,Segurança,,,"Av. Des. Moreira, 2033 - Aldeota",SER 2,-3.7435713,-38.500774,Aldeota,AMCPPS41.1
AMCPPS42.1 AV. DUQUE DE CAXIAS 808 (EXTRAFARMA),AMC,URBIMIDIA,-,-,-,-,SECUROS,1,,Espaço Público,FALSE,Segurança,,,"Av. Duque de Caxias, 808 - Centro",SER 12,-3.7311311,-38.531667,Centro,AMCPPS42.1
AMCPPS43.1 AV. PRESIDENTE COSTA E SILVA (POSTO SHELL),AMC,URBIMIDIA,-,-,-,-,SECUROS,1,,Espaço Público,FALSE,Segurança,,,"Av. Presidente Costa e Silva, 2721 - Mondubim",SER 8,-3.8212844,-38.557244,Parque Dois Irmãos,AMCPPS43.1
AMCPPS44.1 AV. DA ABOLICAO 4047 (HELIAR AUTO GRID),AMC,URBIMIDIA,-,-,-,-,SECUROS,1,,Espaço Público,FALSE,Segurança,,,"Av. da Abolição, 4215 - Meireles",SER 2,-3.7231485,-38.480664,Mucuripe,AMCPPS44.1
AMCPPS45.1 AV. DESEMBARGADOR MOREIRA 940 (PRACA PORTUGAL),AMC,URBIMIDIA,-,-,-,-,SECUROS,1,,Espaço Público,FALSE,Segurança,,,"Av. Des. Moreira, 908 - Meireles",SER 2,-3.7338831,-38.497675,Aldeota,AMCPPS45.1
AMCPPS46.1 AV. CORONEL JOSE PHILOMENO GOMES 500 (CENTRO FASHION),AMC,URBIMIDIA,-,-,-,-,SECUROS,1,,Espaço Público,FALSE,Segurança,,,"Av. Filomeno Gomes, 500 - Jacarecanga",SER 1,-3.7195335,-38.541557,Jacarecanga,AMCPPS46.1
AMCPPS47.1 AV. AGUANAMBI 1017 (AUTO ESCOLA MONTENEGRO),AMC,URBIMIDIA,-,-,-,-,SECUROS,1,,Espaço Público,FALSE,Segurança,,,"Av. Aguanambi, 1001 - José Bonifacio",SER 4,-3.7453932,-38.525242,Fátima,AMCPPS47.1
AMCPPS48.1 AV. SILAS MUNGUBA 2259 (UECE),AMC,URBIMIDIA,-,-,-,-,SECUROS,1,,Espaço Público,FALSE,Segurança,,,"Av. Dr. Silas Munguba, 1700 - Itaperi",SER 8,-3.785853868510041,-38.55162294492268,Itaperi,AMCPPS48.1
AMCPPS49.1 AV. JOSE BASTOS (ESTACAO COUTO FERNANDES),AMC,URBIMIDIA,-,-,-,-,SECUROS,1,,Espaço Público,FALSE,Segurança,,,"Av. José Bastos, 4675 - Demócrito Rocha",SER 11,-3.757050386164627,-38.55768458563698,Bela Vista,AMCPPS49.1
AMCPPS50.1 AV. DOMINGOS OLIMPIO 920 (FACULDADE LORENCO FILHO),AMC,URBIMIDIA,-,-,-,-,SECUROS,1,,Espaço Público,FALSE,Segurança,,,"Av. Domingos Olímpio, 910 - José Bonifacio",SER 4,-3.736290721655589,-38.53205982743468,José Bonifácio,AMCPPS50.1
AMCPPS51.1 AV. OLIVEIRA PAIVA 2989 (POSTO ESSO),AMC,URBIMIDIA,-,-,-,-,SECUROS,1,,Espaço Público,FALSE,Segurança,,,"Av. Oliveira Paiva, 2989 - Parque Manibura",SER 6,-3.7957101377775335,-38.48091755800015,Parque Manibura,AMCPPS51.1
AMCPPS52.1 AV. MISTER HULL 4025 (VAREJAO DA FORMICA),AMC,URBIMIDIA,-,-,-,-,SECUROS,1,,Espaço Público,FALSE,Segurança,,,"Av. Mister Hull, 4025 - Padre Andrade",SER 3,-3.738338277418299,-38.58063591359334,Padre Andrade,AMCPPS52.1
AMCPPS53.1 AV. BERNARDO MANOEL 7940 (SUCATA AVIAO),AMC,URBIMIDIA,-,-,-,-,SECUROS,1,,Espaço Público,FALSE,Segurança,,,"Av. Bernardo Manuel, 7940 - Itaperi",SER 8,-3.788466597099241,-38.54840805869153,Itaperi,AMCPPS53.1
AMCPPS54.1 AV. BERNARDO MANOEL 11456 (CASIMIRO MONTEIRO),AMC,URBIMIDIA,-,-,-,-,SECUROS,1,,Espaço Público,FALSE,Segurança,,,"Av. Bernardo Manuel, 11360 - Mondubim",SER 10,-3.8190736431892125,-38.55775172449664,Mondubim,AMCPPS54.1
AMCPPS55.1 AV. ABOLICAO (IGREJA NOSSA ENHORA DA SAUDE),AMC,URBIMIDIA,-,-,-,-,SECUROS,1,,Espaço Público,FALSE,Segurança,,,"Av. da Abolição, 3905 - Meireles",SER 2,-3.725226437601069,-38.484149363830554,Mucuripe,AMCPPS55.1
AMCPPS56.1 AV. BORGES DE MELO 1630 (RODOVIARIA),AMC,URBIMIDIA,-,-,-,-,SECUROS,1,,Espaço Público,FALSE,Segurança,,,"Av. Borges de Melo, 1630 - Parreão",SER 4,-3.758627846561088,-38.53141412022167,Fátima,AMCPPS56.1
AMCPPS57.1 AV. CEL. CARVALHO 2728 (PRACA),AMC,URBIMIDIA,-,-,-,-,SECUROS,1,,Espaço Público,FALSE,Segurança,,,"Av. Cel. Carvalho, 2670 - Jardim Guanabara",SER 1,-3.7266949981136586,-38.585594068321626,Jardim Guanabara,AMCPPS57.1
AMCPPS58.1 AV. DOMINGOS OLIMPIO 150 (RODOVIA SAO BENEDITO),AMC,URBIMIDIA,-,-,-,-,SECUROS,1,,Espaço Público,FALSE,Segurança,,,"Av. Domingos Olímpio, 145 - Benfica",SER 4,-3.7384099958777535,-38.52568771133013,José Bonifácio,AMCPPS58.1
AMCPPS59.1 AV. ANTONIO JUSTA 3113 (ESCOLA SAUDE CEARA),AMC,URBIMIDIA,-,-,-,-,SECUROS,1,,Espaço Público,FALSE,Segurança,,,"Av. Antônio Justa, 3113 - Meireles",SER 2,-3.727972088646963,-38.49316179895851,Meireles,AMCPPS59.1
AMCPPS60.1 AV. DR. RAUL BARBOSA 900 (POSTO IPIRANGA),AMC,URBIMIDIA,-,-,-,-,SECUROS,1,,Espaço Público,FALSE,Segurança,,,"Av. Governador Raul Barbosa, 3730 - São João do Tauape",SER 2,-3.75947874610872,-38.50472798520598,Tauape,AMCPPS60.1
AMCPPS61.1 AV. BERNARDO MANUEL 10141 (CENTERBOX),AMC,URBIMIDIA,-,-,-,-,SECUROS,1,,Espaço Público,FALSE,Segurança,,,Avenida Bernando Manuel 10070 - Itaperi,SER 8,-3.8072995006232366,-38.554152824853546,Rachel de Queiroz,AMCPPS61.1
AMCPPS62.1 AV. ANTONIO SALES 3316 (SUPERMERCADO PINHEIRO),AMC,URBIMIDIA,-,-,-,-,SECUROS,1,,Espaço Público,FALSE,Segurança,,,"Av. Antônio Sales, 3266 - Dionísio Torres",SER 2,-3.747822781000758,-38.49500514715614,Dionísio Torres,AMCPPS62.1
AMCPPS63.1 AV. OLIVEIRA PAIVA 1735 (COMETA SUPERMERCADOS),AMC,URBIMIDIA,-,-,-,-,SECUROS,1,,Espaço Público,FALSE,Segurança,,,"Av. Oliveira Paiva, 1735 - Cidade dos Funcionários",SER 6,-3.7958083417644626,-38.49071208085675,Parque Manibura,AMCPPS63.1
AMCPPS64.1 AV. BORGES DE MELO 764 (CISP),AMC,URBIMIDIA,-,-,-,-,SECUROS,1,,Espaço Público,FALSE,Segurança,,,"Av. Borges de Melo, 786 - Parreão",SER 4,-3.7605671786661814,-38.52583765530633,Aeroporto,AMCPPS64.1
AMCPPS65.1 RUA CEL. MATOS DOURADO 1437 (CUCA PICI),AMC,URBIMIDIA,-,-,-,-,SECUROS,1,,Espaço Público,FALSE,Segurança,,,R. Cel. Matos Dourado - Padre Andrade,SER 11,-3.7528384696132715,-38.58269683292982,Pici,AMCPPS65.1
AMCPPS66.1 AV. DOM MANUEL 811 (PRACA PAJEU),AMC,URBIMIDIA,-,-,-,-,SECUROS,1,,Espaço Público,FALSE,Segurança,,,"Av. Dom Manuel, 798 - Centro",SER 12,-3.7315330552422683,-38.52222327739618,Centro,AMCPPS66.1
AMCPPS67.1 AV. JORNALISTA TOMAZ COELHO (LAGOA MESSEJANA),AMC,URBIMIDIA,-,-,-,-,SECUROS,1,,Espaço Público,FALSE,Segurança,,,"Av. Jornalista Tomaz Coelho, 60 - Messejana",SER 6,-3.832206146104732,-38.497442440429296,Messejana,AMCPPS67.1
AMCPPS68.1 AV. DOUTOR THEBERGE S/N (PARQUE RAQUEL DE QUEIROZ),AMC,URBIMIDIA,-,-,-,-,SECUROS,1,,Espaço Público,FALSE,Segurança,,,"Av. José Façanha, 680 - Pres. Kennedy",SER 3,-3.7336144481846563,-38.569097013156586,Presidente Kennedy,AMCPPS68.1
AMCPPS69.1 AV. JOAO PESSOA 5126 (SUPERMERCADO COMETA),AMC,URBIMIDIA,-,-,-,-,SECUROS,1,,Espaço Público,FALSE,Segurança,,,"Av. João Pessoa, 5103 - Damas",SER 4,-3.756570507104173,-38.553099081948396,Damas,AMCPPS69.1
AMCPPS70.1 AV. PADRE IBIAPINA 1313 (UNIFAMETRO),AMC,URBIMIDIA,-,-,-,-,SECUROS,1,,Espaço Público,FALSE,Segurança,,,"R. Padre Ibiapina, 1313 - Jacarecanga",SER 12,-3.7265315734041202,-38.54043282784272,Centro,AMCPPS70.1
AMCPPS71.1 AV. PADRE ANTONIO TOMAS 2030 (HAPCLINICA),AMC,URBIMIDIA,-,-,-,-,SECUROS,1,,Espaço Público,FALSE,Segurança,,,"Av. Padre Antônio Tomás, 2035 - Aldeota",SER 2,-3.7418549763108633,-38.49420584898569,Aldeota,AMCPPS71.1
AMCPPS72.1 AV. GENERAL OSORIO DE PAIVA 191 (GINASIO PARANGABA),AMC,URBIMIDIA,-,-,-,-,SECUROS,1,,Espaço Público,FALSE,Segurança,,,"Av. Gen. Osório de Paiva, 191 - Parangaba",SER 4,-3.7751322548908806,-38.565915550780744,Parangaba,AMCPPS72.1
AMCPPS73.1 AV. FERNADES TAVORA 2200 (IGREJA DOS MORMONS),AMC,URBIMIDIA,-,-,-,-,SECUROS,1,,Espaço Público,FALSE,Segurança,,,"Av. Senador Fernandes Távora, 2200 - Jóquei Clube",SER 11,-3.756991982232451,-38.59168975403924,Dom Lustosa,AMCPPS73.1
AMCPPS74.1 AV. DOM LUIS 230 (WIZARD),AMC,URBIMIDIA,-,-,-,-,SECUROS,1,,Espaço Público,FALSE,Segurança,,,"Av. Dom Luís, 233 - Aldeota",SER 2,-3.7324599348618372,-38.499606744312615,Meireles,AMCPPS74.1
AMCPPS75.1 AV. PRESIDENTE COSTA E SILVA (FROTINHA MESSEJANA),AMC,URBIMIDIA,-,-,-,-,SECUROS,1,,Espaço Público,FALSE,Segurança,,,"Av. Presidente Costa e Silva, 1661 - Mondubim",SER 9,-3.8299841654937037,-38.50950367595462,Jangurussu,AMCPPS75.1
AMCPPS76.1 AV. PAULINO ROCHA 1330 (SEUMA),AMC,URBIMIDIA,-,-,-,-,SECUROS,1,,Espaço Público,FALSE,Segurança,,,"Av. Dep. Paulino Rocha, 1343 - Cajazeiras",SER 9,-3.8096411281610334,-38.508795459742835,Cajazeiras,AMCPPS76.1
AMCPPS77.1 AV. PAULINO ROCHA 1001 (COND. MORADA DOS BOSQUES),AMC,URBIMIDIA,-,-,-,-,SECUROS,1,,Espaço Público,FALSE,Segurança,,,"Av. Dep. Paulino Rocha, 1001 - Cajazeiras",SER 9,-3.8063729018492545,-38.5081741824562,Cajazeiras,AMCPPS77.1
AMCPPS78.1 AV. JUSCELINO KUBITSCHECK 3764 (RES. VILA RUBI),AMC,URBIMIDIA,-,-,-,-,SECUROS,1,,Espaço Público,FALSE,Segurança,,,"Av. Pres. Juscelino Kubitschek, 3750 - Passaré",SER 8,-3.815840455859888,-38.531472376164835,Passaré,AMCPPS78.1
AMCPPS79.1 AV. FRANCISCO SA 3990 (PRACA IGREJA CARLITO PAMPLONA),AMC,URBIMIDIA,-,-,-,-,SECUROS,1,,Espaço Público,FALSE,Segurança,,,"Av. Francisco Sá, 3990 - Álvaro Weyne",SER 1,-3.716129574517723,-38.56081641830099,Álvaro Weyne,AMCPPS79.1
AMCPPS80.1 RUA PADRE ANTONIO TOMAS 515 (PARQUE COCO),AMC,URBIMIDIA,-,-,-,-,SECUROS,1,,Espaço Público,FALSE,Segurança,,,"Av. Padre Antônio Tomás, 3032 - Cocó",SER 7,-3.7443052555522978,-38.484802038757145,Cocó,AMCPPS80.1
AMCPPS81.1 AV. AMERICO BARREIRA 6180 (JOSE BASTOS VEICULOS),AMC,URBIMIDIA,-,-,-,-,SECUROS,1,,Espaço Público,FALSE,Segurança,,,"Av. Américo Barreira, 6180 - Jóquei Clube",SER 4,-3.765686746481423,-38.56765169882349,Parangaba,AMCPPS81.1
AMCPPS82.1 AV. FERNANDES TAVORA S/N (EEFM MARINO MARTINS),AMC,URBIMIDIA,-,-,-,-,SECUROS,1,,Espaço Público,FALSE,Segurança,,,"Av. Senador Fernandes Távora, 1386 - Jóquei Clube",SER 11,-3.7602925584250406,-38.585454710076284,Henrique Jorge,AMCPPS82.1
AMCPPS83.1 AV. ROGACIANO LEITE 986 (CONDOMINIO SUN FLWER II),AMC,URBIMIDIA,-,-,-,-,SECUROS,1,,Espaço Público,FALSE,Segurança,,,"Av. Rogaciano Leite, 731 - Guararapes",SER 7,-3.7654951632180693,-38.495791552550735,Guararapes,AMCPPS83.1
AMCPPS84.1 AV. JOAO PESSOA 4467 (CRAS COUTO FERNANDES),AMC,URBIMIDIA,-,-,-,-,SECUROS,1,,Espaço Público,FALSE,Segurança,,,"Av. João Pessoa, 4495 - Damas",SER 4,-3.7522143999251054,-38.54936179462703,Damas,AMCPPS84.1
AMCPPS85.1 AV. JOSE BASTOS (ESTACAO METRO PADRE CICERO),AMC,URBIMIDIA,-,-,-,-,SECUROS,1,,Espaço Público,FALSE,Segurança,,,"Av. José Bastos, 2832 - Rodolfo Teófilo",SER 3,-3.7452120927452617,-38.545840582342926,Rodolfo Teófilo,AMCPPS85.1
AMCPPS86.1 AV. JORNALISTA TOMAZ COELHO 2706 (SOFA DESIGN),AMC,URBIMIDIA,-,-,-,-,SECUROS,1,,Espaço Público,FALSE,Segurança,,,"Av. Jornalista Tomaz Coelho, 2689 - Mondubim",SER 9,-3.8284749122768837,-38.51894593437395,Jangurussu,AMCPPS86.1
AMCPPS87.1 AV. PRESIDENTE COSTA E SILVA 4298 9UPA JOSE WALTER),AMC,URBIMIDIA,-,-,-,-,SECUROS,1,,Espaço Público,FALSE,Segurança,,,"Av. Presidente Costa e Silva, 4475 - Mondubim",SER 8,-3.8252839042244604,-38.54171253284798,Prefeito José Walter,AMCPPS87.1
AMCPPS88.1 RUA ANTONIO POMPEU 120 (RMB DISTRIBUIDORA DE LIVROS),AMC,URBIMIDIA,-,-,-,-,SECUROS,1,,Espaço Público,FALSE,Segurança,,,"R. Antônio Pompeu, 120 - Centro",SER 12,-3.7365746527702233,-38.52483052623999,Centro,AMCPPS88.1
AMCPPS89.1 AV. AUGUSTO DOS ANJOS 2250 (POSTO PETROBAS),AMC,URBIMIDIA,-,-,-,-,SECUROS,1,,Espaço Público,FALSE,Segurança,,,"Av. Augusto dos Anjos, 2350 - Parangaba",SER 5,-3.786279505770546,-38.58434059319156,Bonsucesso,AMCPPS89.1
AMCPPS90.1 AV. PEDRO LAZAR 877 (SUPERMERCADO LAGOA),AMC,URBIMIDIA,-,-,-,-,SECUROS,1,,Espaço Público,FALSE,Segurança,,,"Av. Pedro Lazar, 877 - Cambeba",SER 6,-3.8031239664581418,-38.488382180207836,Cambeba,AMCPPS90.1
AMCPPS91.1 AV. SARGENTO HERMINIO SAMPAIO 2995 (RIOMAR KENNEDY),AMC,URBIMIDIA,-,-,-,-,SECUROS,1,,Espaço Público,FALSE,Segurança,,,"Av. Sgt. Hermínio Sampaio, 2995 - Pres. Kennedy",SER 3,-3.727736210509021,-38.56766041696719,Presidente Kennedy,AMCPPS91.1
AMCPPS92.1 AV. SARGENTO HERMINIO SAMPAIO 947 (AUTOSCAP),AMC,URBIMIDIA,-,-,-,-,SECUROS,1,,Espaço Público,FALSE,Segurança,,,"Av. Sgt. Hermínio Sampaio, 947 - Monte Castelo",SER 3,-3.7247312191943913,-38.54926936270543,Monte Castelo,AMCPPS92.1
AMCPPS93.1 RUA PEDRO I (PRACA MURILO BORGES),AMC,URBIMIDIA,-,-,-,-,SECUROS,1,,Espaço Público,FALSE,Segurança,,,"R. Pedro I, 373 - Centro",SER 12,-3.731364593095546,-38.527956422530984,Centro,AMCPPS93.1
AMCPPS94.1 RUA PEREIRA FILGUEIRAS 713 (ESCOLA PIMPOLHO),AMC,URBIMIDIA,-,-,-,-,SECUROS,1,,Espaço Público,FALSE,Segurança,,,"R. Pereira Filgueiras, 713 - Centro",SER 12,-3.727268985837333,-38.516336216637775,Centro,AMCPPS94.1
AMCPPS95.1 RUA VITAL BRASIL 198 (POSTO DA SAUDE MARIUSA SILVA DE SOUSA),AMC,URBIMIDIA,-,-,-,-,SECUROS,1,,Espaço Público,FALSE,Segurança,,,"R. Vital Brasil, 293 - Bonsucesso",SER 5,-3.7818959783258914,-38.58404598929403,Bonsucesso,AMCPPS95.1
AMCPPS96.1 AV. DA ABOLICAO 2456 (DEFRONTE ABOLICAO PRAIA HOTEL),AMC,URBIMIDIA,-,-,-,-,SECUROS,1,,Espaço Público,FALSE,Segurança,,,"Av. da Abolição, 2435 - Meireles",SER 2,-3.726774461017154,-38.496893093872714,Meireles,AMCPPS96.1
AMCPPS97.1 AV. MONSENHOR TABOSA 176 (RESTAURANTE IDEAL CLUBE),AMC,URBIMIDIA,-,-,-,-,SECUROS,1,,Espaço Público,FALSE,Segurança,,,"Av. Monsenhor Tabosa, 1500 - Centro",SER 2,-3.7244992413560243,-38.50592364990632,Meireles,AMCPPS97.1
AMCPPS98.1 OSORIO DE PAIVA 2591 (IGREJA SAO JOSE),AMC,URBIMIDIA,-,-,-,-,SECUROS,1,,Espaço Público,FALSE,Segurança,,,"Av. Gen. Osório de Paiva, 2581 - Parangaba",SER 4,-3.787999308509244,-38.58563189541452,Vila Peri,AMCPPS98.1
C01 AV. DOM MANUEL X AV. HERÁCLITO GRAÇA,AMC,DB3,Antonio Luiz Junior Araujo,18/2020,11/12/2020,15/12/2025,SECUROS,,1,Espaço Público,FALSE,Pesquisa TK,,,"Av. Heráclito Graça, 186 - Centro",SER 12,-3.7340464,-38.5230077,Centro,C01
C01.1 AV. DOM MANUEL X AV. HERÁCLITO GRAÇA,AMC,DB3,Antonio Luiz Junior Araujo,18/2020,11/12/2020,15/12/2025,SECUROS,1,,Espaço Público,FALSE,LPR,,,"Av. Dom Manuel, 1116 - Centro",SER 12,-3.7338466,-38.5229496,Centro,C01.1
C01.2 AV. DOM MANUEL X AV. HERÁCLITO GRAÇA,AMC,DB3,Antonio Luiz Junior Araujo,18/2020,11/12/2020,15/12/2025,SECUROS,1,,Espaço Público,FALSE,LPR,,,"Av. Heráclito Graça, 187 - Centro",SER 12,-3.7341337454156247,-38.522769916424714,Centro,C01.2
C01.3 AV. DOM MANUEL X AV. HERÁCLITO GRAÇA,AMC,DB3,Antonio Luiz Junior Araujo,18/2020,11/12/2020,15/12/2025,SECUROS,1,,Espaço Público,FALSE,LPR,,,"Av. Dom Manuel, 1114 - Centro",SER 12,-3.7341725548783535,-38.522998574740484,Centro,C01.3
C01.4 AV. DOM MANUEL X AV. HERÁCLITO GRAÇA,AMC,DB3,Antonio Luiz Junior Araujo,18/2020,11/12/2020,15/12/2025,SECUROS,1,,Espaço Público,FALSE,LPR,,,"Av. Heráclito Graça, 225 - Centro",SER 12,-3.7340594721316926,-38.52277796305155,Centro,C01.4
C02 R. BR. DO RIO BRANCO X AV. DQ. DE CAXIAS,AMC,DB3,Antonio Luiz Junior Araujo,18/2020,11/12/2020,15/12/2025,SECUROS,,1,Espaço Público,FALSE,Pesquisa TK,,,"Av. Duque de Caxias, 617 - Centro",SER 12,-3.7318099,-38.5300078,Centro,C02
C02.1 R. BR. DO RIO BRANCO X AV. DQ. DE CAXIAS,AMC,DB3,Antonio Luiz Junior Araujo,18/2020,11/12/2020,15/12/2025,SECUROS,1,,Espaço Público,FALSE,LPR,BICI,,"Av. Duque de Caxias, 505 - Centro",SER 12,-3.7318835852376337,-38.529855069119,Centro,C02.1
C02.2 R. BR. DO RIO BRANCO X AV. DQ. DE CAXIAS,AMC,DB3,Antonio Luiz Junior Araujo,18/2020,11/12/2020,15/12/2025,SECUROS,1,,Espaço Público,FALSE,LPR,,,"R. Barão do Rio Branco, 1621 - Centro",SER 12,-3.731803,-38.530016,Centro,C02.2
C02.3 R. BR. DO RIO BRANCO X AV. DQ. DE CAXIAS,AMC,DB3,Antonio Luiz Junior Araujo,18/2020,11/12/2020,15/12/2025,SECUROS,1,,Espaço Público,FALSE,LPR,,,"Av. Duque de Caxias, 560 - Centro",SER 12,-3.731803,-38.530016,Centro,C02.3
C03 AV. TRISTÃO GONÇALVES X AV. DQ. DE CAXIASS,AMC,DB3,Antonio Luiz Junior Araujo,18/2020,11/12/2020,15/12/2025,SECUROS,,1,Espaço Público,FALSE,Pesquisa TK,,,"Av. Duque de Caxias, 1091 - Centro",SER 12,-3.7304878,-38.534212,Centro,C03
C03.1 AV. TRISTÃO GONÇALVES X AV. DQ. DE CAXIAS,AMC,DB3,Antonio Luiz Junior Araujo,18/2020,11/12/2020,15/12/2025,SECUROS,1,,Espaço Público,FALSE,LPR,,,"Av. Duque de Caxias, 1080 - Centro",SER 12,-3.7304313,-38.5341308,Centro,C03.1
C03.2 AV. TRISTÃO GONÇALVES X AV. DQ. DE CAXIAS,AMC,DB3,Antonio Luiz Junior Araujo,18/2020,11/12/2020,15/12/2025,SECUROS,1,,Espaço Público,FALSE,LPR,BICI,,"Av. Duque de Caxias, 1083 - Centro",SER 12,-3.7304867,-38.5341563,Centro,C03.2
C03.3 AV. TRISTÃO GONÇALVES X AV. DQ. DE CAXIAS,AMC,DB3,Antonio Luiz Junior Araujo,18/2020,11/12/2020,15/12/2025,SECUROS,1,,Espaço Público,FALSE,LPR,BICI,,"Av. Tristão Gonçalves, 1025 - Centro",SER 12,-3.730609,-38.5343336,Centro,C03.3
C04 AV. IMPERADOR X AV. DOMINGOS OLÍMPIO,AMC,DB3,Antonio Luiz Junior Araujo,18/2020,11/12/2020,15/12/2025,SECUROS,,1,Espaço Público,FALSE,Pesquisa TK,,,"Av. Domingos Olímpio, 1495 - Benfica",SER 3,-3.7349294,-38.5368154,Farias Brito,C04
C04.1 AV. IMPERADOR X AV. DOMINGOS OLÍMPIO,AMC,DB3,Antonio Luiz Junior Araujo,18/2020,11/12/2020,15/12/2025,SECUROS,1,,Espaço Público,FALSE,LPR,,,"Avenida Imperador, 1490 - Centro",SER 3,-3.7346985,-38.5366897,Farias Brito,C04.1
C04.2 AV. IMPERADOR X AV. DOMINGOS OLÍMPIO,AMC,DB3,Antonio Luiz Junior Araujo,18/2020,11/12/2020,15/12/2025,SECUROS,1,,Espaço Público,FALSE,LPR,BICI,,"Av. Domingos Olímpio, 1500 - Centro",SER 4,-3.7348876,-38.5366082,Benfica,C04.2
C04.3 AV. IMPERADOR X AV. DOMINGOS OLÍMPIO,AMC,DB3,Antonio Luiz Junior Araujo,18/2020,11/12/2020,15/12/2025,SECUROS,1,,Espaço Público,FALSE,LPR,BICI,,"Av. Domingos Olímpio, 1525 - Farias Brito",SER 3,-3.7348337,-38.5368684,Farias Brito,C04.3
C04.4 AV. IMPERADOR X AV. DOMINGOS OLÍMPIO,AMC,DB3,Antonio Luiz Junior Araujo,18/2020,11/12/2020,15/12/2025,SECUROS,1,,Espaço Público,FALSE,LPR,BICI,,"Avenida Imperador, 355 - Centro",SER 4,-3.7347149,-38.5366062,Benfica,C04.4
C04.5 AV. IMPERADOR X AV. DOMINGOS OLÍMPIO,AMC,DB3,Antonio Luiz Junior Araujo,18/2020,11/12/2020,15/12/2025,SECUROS,1,,Espaço Público,FALSE,LPR,BICI,,"Av. Domingos Olímpio, 1500 - Centro",SER 4,-3.7349027,-38.5365642,Benfica,C04.5
C05 R. GEN. SAMPAIO X R. CASTRO E SILVA,AMC,DB3,Antonio Luiz Junior Araujo,18/2020,11/12/2020,15/12/2025,SECUROS,,1,Espaço Público,FALSE,Pesquisa TK,,,"R. Gen. Sampaio, 521 - Centro",SER 12,-3.723135,-38.529702,Centro,C05
C05.1 R. GEN. SAMPAIO X R. CASTRO E SILVA,AMC,DB3,Antonio Luiz Junior Araujo,18/2020,11/12/2020,15/12/2025,SECUROS,1,,Espaço Público,FALSE,LPR,,,"R. Castro e Silva, 477 - Centro",SER 12,-3.7229812,-38.5300232,Centro,C05.1
C05.2 R. GEN. SAMPAIO X R. CASTRO E SILVA,AMC,DB3,Antonio Luiz Junior Araujo,18/2020,11/12/2020,15/12/2025,SECUROS,1,,Espaço Público,FALSE,LPR,,,"R. Gen. Sampaio, 544 - Centro",SER 12,-3.7232485,-38.5297336,Centro,C05.2
C06 AV. DOM MANUEL X AV. MONS. TABOSA,AMC,DB3,Antonio Luiz Junior Araujo,18/2020,11/12/2020,15/12/2025,SECUROS,,1,Espaço Público,FALSE,Pesquisa TK,,,"Av. Monsenhor Tabosa, 3 - Centro",SER 12,-3.7236045,-38.5195353,Centro,C06
C06.1 AV. DOM MANUEL X AV. MONS. TABOSA,AMC,DB3,Antonio Luiz Junior Araujo,18/2020,11/12/2020,15/12/2025,SECUROS,1,,Espaço Público,FALSE,LPR,,,"Av. Dom Manuel, 8 - Centro",SER 12,-3.7236714,-38.5195591,Centro,C06.1
C06.2 AV. DOM MANUEL X AV. MONS. TABOSA,AMC,DB3,Antonio Luiz Junior Araujo,18/2020,11/12/2020,15/12/2025,SECUROS,1,,Espaço Público,FALSE,LPR,,,"Av. Leste Oeste, 85 - Centro",SER 12,-3.7235323,-38.5196644,Centro,C06.2
C06.3 AV. DOM MANUEL X AV. MONS. TABOSA,AMC,DB3,Antonio Luiz Junior Araujo,18/2020,11/12/2020,15/12/2025,SECUROS,1,,Espaço Público,FALSE,LPR,,,"Av. Dom Manuel, 11 - Centro",SER 12,-3.7236808,-38.5196429,Centro,C06.3
C07 AV. BR. DE STUDART X AV. ABOLIÇÃO,AMC,DB3,Antonio Luiz Junior Araujo,18/2020,11/12/2020,15/12/2025,SECUROS,,1,Espaço Público,FALSE,Pesquisa TK,,,"Av. Monsenhor Tabosa, 1723 - Meireles",SER 2,-3.724653660255251,-38.50347728423535,Meireles,C07
C07.1 AV. BR. DE STUDART X AV. ABOLIÇÃO,AMC,DB3,Antonio Luiz Junior Araujo,18/2020,11/12/2020,15/12/2025,SECUROS,1,,Espaço Público,FALSE,LPR,,,"Av. Monsenhor Tabosa, 1748 - Centro",SER 2,-3.724733,-38.5035716,Meireles,C07.1
C07.2 AV. BR. DE STUDART X AV. ABOLIÇÃO,AMC,DB3,Antonio Luiz Junior Araujo,18/2020,11/12/2020,15/12/2025,SECUROS,1,,Espaço Público,FALSE,LPR,,,"Av. Historiador Raimundo Girão, 1361 - Meireles",SER 2,-3.7245998,-38.5032517,Meireles,C07.2
C07.3 AV. BR. DE STUDART X AV. ABOLIÇÃO,AMC,DB3,Antonio Luiz Junior Araujo,18/2020,11/12/2020,15/12/2025,SECUROS,1,,Espaço Público,FALSE,LPR,,,"Av. Monsenhor Tabosa, 1717 - Meireles",SER 2,-3.7247102,-38.5035655,Meireles,C07.3
C07.4 AV. BR. DE STUDART X AV. ABOLIÇÃO,AMC,DB3,Antonio Luiz Junior Araujo,18/2020,11/12/2020,15/12/2025,SECUROS,1,,Espaço Público,FALSE,LPR,,,"Av. Barão de Studart, 125 - Meireles",SER 2,-3.7249458,-38.5034774,Meireles,C07.4
C08 AV. BR. DE STUDART X AV. HERÁCLITO GRAÇA,AMC,DB3,Antonio Luiz Junior Araujo,18/2020,11/12/2020,15/12/2025,SECUROS,,1,Espaço Público,FALSE,Pesquisa TK,,,"Av. Júlio Ventura, 2 - Aldeota",SER 2,-3.7392549,-38.5080283,Aldeota,C08
C08.1 AV. BR. DE STUDART X AV. HERÁCLITO GRAÇA,AMC,DB3,Antonio Luiz Junior Araujo,18/2020,11/12/2020,15/12/2025,SECUROS,1,,Espaço Público,FALSE,LPR,,,"Av. Júlio Ventura, 1834 - Aldeota",SER 2,-3.739289,-38.508026,Aldeota,C08.1
C08.2 AV. BR. DE STUDART X AV. HERÁCLITO GRAÇA,AMC,DB3,Antonio Luiz Junior Araujo,18/2020,11/12/2020,15/12/2025,SECUROS,1,,Espaço Público,FALSE,LPR,,,"Av. Barão de Studart, 1801 - Aldeota",SER 2,-3.7393034,-38.5080434,Aldeota,C08.2
C08.3 AV. BR. DE STUDART X AV. HERÁCLITO GRAÇA,AMC,DB3,Antonio Luiz Junior Araujo,18/2020,11/12/2020,15/12/2025,SECUROS,1,,Espaço Público,FALSE,LPR,,,"Av. Barão de Studart, 1801 - Aldeota",SER 2,-3.739294,-38.5080468,Aldeota,C08.3
C08.4 AV. BR. DE STUDART X AV. HERÁCLITO GRAÇA,AMC,DB3,Antonio Luiz Junior Araujo,18/2020,11/12/2020,15/12/2025,SECUROS,1,,Espaço Público,FALSE,LPR,,,"Av. Barão de Studart, 1670 - Aldeota",SER 2,-3.7389417,-38.5079928,Aldeota,C08.4
C09 AV. BR. DE STUDART X AV. ANTÔNIO SALES,AMC,DB3,Antonio Luiz Junior Araujo,18/2020,11/12/2020,15/12/2025,SECUROS,,1,Espaço Público,FALSE,Pesquisa TK,,,"Av. Barão de Studart, 2260 - Dionísio Torres",SER 2,-3.7433294,-38.5094691,Joaquim Távora,C09
C10 AV. BR. DE STUDART X AV. PONTES VIEIRA,AMC,DB3,Antonio Luiz Junior Araujo,18/2020,11/12/2020,15/12/2025,SECUROS,,1,Espaço Público,FALSE,Pesquisa TK,,,"Av. Pontes Vieira, 983 - Dionísio Torres",SER 2,-3.7524975,-38.512228,Dionísio Torres,C10
C10.1 AV. BR. DE STUDART X AV. PONTES VIEIRA,AMC,DB3,Antonio Luiz Junior Araujo,18/2020,11/12/2020,15/12/2025,SECUROS,1,,Espaço Público,FALSE,LPR,,,"Av. Pontes Vieira, 989 - Dionísio Torres",SER 2,-3.752546,-38.5119785,Tauape,C10.1
C10.2 AV. BR. DE STUDART X AV. PONTES VIEIRA,AMC,DB3,Antonio Luiz Junior Araujo,18/2020,11/12/2020,15/12/2025,SECUROS,1,,Espaço Público,FALSE,LPR,,,"Av. Barão de Studart, 3269 - Dionísio Torres",SER 2,-3.7524312,-38.5122957,Dionísio Torres,C10.2
C11 AV. DES. MOREIRA X AV. ABOLIÇÃO,AMC,DB3,Antonio Luiz Junior Araujo,18/2020,11/12/2020,15/12/2025,SECUROS,,1,Espaço Público,FALSE,Pesquisa TK,,,"Av. Des. Moreira, 121 - Aldeota",SER 2,-3.727119,-38.495598,Meireles,C11
C11.1 AV. DES. MOREIRA X AV. ABOLIÇÃO,AMC,DB3,Antonio Luiz Junior Araujo,18/2020,11/12/2020,15/12/2025,SECUROS,1,,Espaço Público,FALSE,LPR,,,"Av. Des. Moreira, 121 - Aldeota",SER 2,-3.7274964,-38.4954572,Meireles,C11.1
C11.2 AV. DES. MOREIRA X AV. ABOLIÇÃO,AMC,DB3,Antonio Luiz Junior Araujo,18/2020,11/12/2020,15/12/2025,SECUROS,1,,Espaço Público,FALSE,LPR,,,"Av. da Abolição, 2719 - Meireles",SER 2,-3.7272766,-38.4953653,Meireles,C11.2
C11.3 AV. DES. MOREIRA X AV. ABOLIÇÃO,AMC,DB3,Antonio Luiz Junior Araujo,18/2020,11/12/2020,15/12/2025,SECUROS,1,,Espaço Público,FALSE,LPR,,,"Av. da Abolição, 2686 - Meireles, Fortaleza - CE, 60165-080",SER 2,-3.7273107,-38.4956101,Meireles,C11.3
C12 AV. DES. MOREIRA X AV. DOM LUÍS,AMC,DB3,Antonio Luiz Junior Araujo,18/2020,11/12/2020,15/12/2025,SECUROS,,1,Espaço Público,FALSE,Pesquisa TK,,,"Av. Dom Luís, 485 - Aldeota",SER 2,-3.7333557,-38.4969318,Aldeota,C12
C12.1 AV. DES. MOREIRA X AV. DOM LUÍS,AMC,DB3,Antonio Luiz Junior Araujo,18/2020,11/12/2020,15/12/2025,SECUROS,1,,Espaço Público,FALSE,LPR,,,"Av. Dom Luís, 485 - Aldeota",SER 2,-3.7333688,-38.4969303,Aldeota,C12.1
C12.2 AV. DES. MOREIRA X AV. DOM LUÍS,AMC,DB3,Antonio Luiz Junior Araujo,18/2020,11/12/2020,15/12/2025,SECUROS,1,,Espaço Público,FALSE,LPR,,,"Av. Dom Luís, 525 - Meireles",SER 2,-3.7335525,-38.49672,Aldeota,C12.2
C12.3 AV. DES. MOREIRA X AV. DOM LUÍS,AMC,DB3,Antonio Luiz Junior Araujo,18/2020,11/12/2020,15/12/2025,SECUROS,1,,Espaço Público,FALSE,LPR,,,"Av. Dom Luís, 500 - Aldeota",SER 2,-3.73356528,-38.4970762,Aldeota,C12.3
C13 AV. DES. MOREIRA X AV. PONTES VIEIRA,AMC,DB3,Antonio Luiz Junior Araujo,18/2020,11/12/2020,15/12/2025,SECUROS,,1,Espaço Público,FALSE,Pesquisa TK,,,"Av. Des. Moreira, 2910 - Aldeota",SER 2,-3.7515997,-38.5034062,Dionísio Torres,C13
C13.1 AV. DES. MOREIRA X AV. PONTES VIEIRA,AMC,DB3,Antonio Luiz Junior Araujo,18/2020,11/12/2020,15/12/2025,SECUROS,1,,Espaço Público,FALSE,LPR,,,"Av. Pontes Vieira, 2101 - Dionísio Torres",SER 2,-3.7514769,-38.5030721,Dionísio Torres,C13.1
C13.2 AV. DES. MOREIRA X AV. PONTES VIEIRA,AMC,DB3,Antonio Luiz Junior Araujo,18/2020,11/12/2020,15/12/2025,SECUROS,1,,Espaço Público,FALSE,LPR,,,"Av. Des. Moreira, 2875 - Aldeota",SER 2,-3.7516933,-38.5033353,Dionísio Torres,C13.2
C13.3 AV. DES. MOREIRA X AV. PONTES VIEIRA,AMC,DB3,Antonio Luiz Junior Araujo,18/2020,11/12/2020,15/12/2025,SECUROS,1,,Espaço Público,FALSE,LPR,,,"Av. Des. Moreira, 2900 - Aldeota",SER 2,-3.7512307,-38.5032739,Dionísio Torres,C13.3
C14 R. ILDEFONSO ALBANO X AV. SANTOS DUMONT,AMC,DB3,Antonio Luiz Junior Araujo,18/2020,11/12/2020,15/12/2025,SECUROS,,1,Espaço Público,FALSE,Pesquisa TK,,,"Av. Santos Dumont, 1234 - Aldeota",SER 2,-3.7315996,-38.5127115,Aldeota,C14
C14.1 R. ILDEFONSO ALBANO X AV. SANTOS DUMONT,AMC,DB3,Antonio Luiz Junior Araujo,18/2020,11/12/2020,15/12/2025,SECUROS,1,,Espaço Público,FALSE,LPR,,,"R. Ildefonso Albano, 1214 - Meireles",SER 2,-3.7315297,-38.5126213,Aldeota,C14.1
C14.2 R. ILDEFONSO ALBANO X AV. SANTOS DUMONT,AMC,DB3,Antonio Luiz Junior Araujo,18/2020,11/12/2020,15/12/2025,SECUROS,1,,Espaço Público,FALSE,LPR,,,"R. Ildefonso Albano, 1214 - Meireles",SER 2,-3.731537,-38.5126323,Aldeota,C14.2
C15 AV. SEN. VIRGÍLIO TÁVORA X AV. SANTOS DUMONT,AMC,DB3,Antonio Luiz Junior Araujo,18/2020,11/12/2020,15/12/2025,SECUROS,,1,Espaço Público,FALSE,Pesquisa TK,,,"Av. Senador Virgílio Távora, 1300 - Dionísio Torres",SER 2,-3.7378495,-38.4936587,Aldeota,C15
C15.1 AV. SEN. VIRGÍLIO TÁVORA X AV. SANTOS DUMONT,AMC,DB3,Antonio Luiz Junior Araujo,18/2020,11/12/2020,15/12/2025,SECUROS,1,,Espaço Público,FALSE,LPR,,,"Av. Senador Virgílio Távora, 1279 - Dionísio Torres",SER 2,-3.7379037,-38.4935249,Aldeota,C15.1
C15.2 AV. SEN. VIRGÍLIO TÁVORA X AV. SANTOS DUMONT,AMC,DB3,Antonio Luiz Junior Araujo,18/2020,11/12/2020,15/12/2025,SECUROS,1,,Espaço Público,FALSE,LPR,,,"Av. Santos Dumont, 3559 - Aldeota",SER 2,-3.7376307,-38.4938391,Aldeota,C15.2
C15.3 AV. SEN. VIRGÍLIO TÁVORA X AV. SANTOS DUMONT,AMC,DB3,Antonio Luiz Junior Araujo,18/2020,11/12/2020,15/12/2025,SECUROS,1,,Espaço Público,FALSE,LPR,,,"Av. Senador Virgílio Távora, 1200 - Aldeota",SER 2,-3.7376167,-38.4934404,Aldeota,C15.3
C18 AV. AGUANAMBI X AV. DOMINGOS OLÍMPIO,AMC,DB3,Antonio Luiz Junior Araujo,18/2020,11/12/2020,15/12/2025,SECUROS,,1,Espaço Público,FALSE,Pesquisa TK,,,"Av. Aguanambi, 217 - José Bonifacio",SER 4,-3.7385887,-38.5244447,José Bonifácio,C18
C18.1 AV. AGUANAMBI X AV. DOMINGOS OLÍMPIO,AMC,DB3,Antonio Luiz Junior Araujo,18/2020,11/12/2020,15/12/2025,SECUROS,1,,Espaço Público,FALSE,LPR,BICI,,"Av. Domingos Olímpio, 123 - José Bonifacio",SER 4,-3.7385666,-38.5248309,José Bonifácio,C18.1
C18.2 AV. AGUANAMBI X AV. DOMINGOS OLÍMPIO,AMC,DB3,Antonio Luiz Junior Araujo,18/2020,11/12/2020,15/12/2025,SECUROS,1,,Espaço Público,FALSE,LPR,,,"Av. Aguanambi, 251 - José Bonifacio",SER 4,-3.7388905,-38.5244943,José Bonifácio,C18.2
C18.3 AV. AGUANAMBI X AV. DOMINGOS OLÍMPIO,AMC,DB3,Antonio Luiz Junior Araujo,18/2020,11/12/2020,15/12/2025,SECUROS,1,,Espaço Público,FALSE,LPR,,,"Av. Dom Manuel, 160 - José Bonifacio",SER 4,-3.7384221,-38.5244956,José Bonifácio,C18.3
C19 AV. AGUANAMBI X BR-116,AMC,DB3,Antonio Luiz Junior Araujo,18/2020,11/12/2020,15/12/2025,SECUROS,,1,Espaço Público,FALSE,Pesquisa TK,,,"Viaduto Ivens Dias Branco, 5525 - José Bonifacio",SER 4,-3.7537453,-38.5236147,Fátima,C19
C20 R.SEN. POMPEU X AV. 13 DE MAIO,AMC,DB3,Antonio Luiz Junior Araujo,18/2020,11/12/2020,15/12/2025,SECUROS,,1,Espaço Público,FALSE,Pesquisa TK,,,"Av. Treze de Maio, 1948 - Fátima",SER 4,-3.744352,-38.534997,Benfica,C20
C21 AV. UNIVERSIDADE X AV. 13 DE MAIO,AMC,DB3,Antonio Luiz Junior Araujo,18/2020,11/12/2020,15/12/2025,SECUROS,,1,Espaço Público,FALSE,Pesquisa TK,,,"Av. da Universidade, 2762 - Benfica",SER 4,-3.7407632,-38.5390948,Benfica,C21
C21.1 AV. UNIVERSIDADE X AV. 13 DE MAIO,AMC,DB3,Antonio Luiz Junior Araujo,18/2020,11/12/2020,15/12/2025,SECUROS,1,,Espaço Público,FALSE,LPR,,,"Av. Treze de Maio, 2597 - Fátima",SER 4,-3.7408097,-38.5392855,Benfica,C21.1
C21.2 AV. UNIVERSIDADE X AV. 13 DE MAIO,AMC,DB3,Antonio Luiz Junior Araujo,18/2020,11/12/2020,15/12/2025,SECUROS,1,,Espaço Público,FALSE,LPR,,,"Av. Treze de Maio, 2600 - Benfica",SER 4,-3.7409646,-38.5389687,Benfica,C21.2
C21.3 AV. UNIVERSIDADE X AV. 13 DE MAIO,AMC,DB3,Antonio Luiz Junior Araujo,18/2020,11/12/2020,15/12/2025,SECUROS,1,,Espaço Público,FALSE,LPR,,,"Av. da Universidade, 2860 - Damas",SER 4,-3.7411834,-38.539418,Benfica,C21.3
C22 AV. LUCIANO CARNEIRO X AV. BORGES DE MELO,AMC,DB3,Antonio Luiz Junior Araujo,18/2020,11/12/2020,15/12/2025,SECUROS,,1,Espaço Público,FALSE,Pesquisa TK,,,"Av. Borges de Melo, 1719 - Parreão",SER 4,-3.7565066,-38.534187,Parreão,C22
C22.1 AV. LUCIANO CARNEIRO X AV. BORGES DE MELO,AMC,DB3,Antonio Luiz Junior Araujo,18/2020,11/12/2020,15/12/2025,SECUROS,1,,Espaço Público,FALSE,LPR,,,"Av. Borges de Melo, 1760 - Parreão",SER 4,-3.7565471,-38.5339597,Fátima,C22.1
C22.2 AV. LUCIANO CARNEIRO X AV. BORGES DE MELO,AMC,DB3,Antonio Luiz Junior Araujo,18/2020,11/12/2020,15/12/2025,SECUROS,1,,Espaço Público,FALSE,LPR,,,"Av. Luciano Carneiro, 1004 - Parreão",SER 4,-3.7562708,-38.5340482,Fátima,C22.2
C22.3 AV. LUCIANO CARNEIRO X AV. BORGES DE MELO,AMC,DB3,Antonio Luiz Junior Araujo,18/2020,11/12/2020,15/12/2025,SECUROS,1,,Espaço Público,FALSE,LPR,,,"Av. Luciano Carneiro, 1001 - Parreão",SER 4,-3.7566341,-38.5341655,Parreão,C22.3
C23 AV. OLAVO BILAC X AV. BEZERRA DE MENEZES,AMC,DB3,Antonio Luiz Junior Araujo,18/2020,11/12/2020,15/12/2025,SECUROS,,1,Espaço Público,FALSE,Pesquisa TK,,,"Av. Bezerra de Menezes, 2181 - Farias Brito",SER 3,-3.7357177,-38.5641095,Parquelândia,C23
C23.1 AV. OLAVO BILAC X AV. BEZERRA DE MENEZES,AMC,DB3,Antonio Luiz Junior Araujo,18/2020,11/12/2020,15/12/2025,SECUROS,1,,Espaço Público,FALSE,LPR,,,"Av. Bezerra de Menezes, 2144 - São Gerardo",SER 3,-3.7353878,-38.5640465,São Gerardo,C23.1
C23.2 AV. OLAVO BILAC X AV. BEZERRA DE MENEZES,AMC,DB3,Antonio Luiz Junior Araujo,18/2020,11/12/2020,15/12/2025,SECUROS,1,,Espaço Público,FALSE,LPR,,,"Av. Bezerra de Menezes, 2201 - Farias Brito",SER 3,-3.7357177,-38.5641974,Parquelândia,C23.2
C23.3 AV. OLAVO BILAC X AV. BEZERRA DE MENEZES,AMC,DB3,Antonio Luiz Junior Araujo,18/2020,11/12/2020,15/12/2025,SECUROS,1,,Espaço Público,FALSE,LPR,,,"R. Olavo Bilac, 2005 - Álvaro Weyne",SER 3,-3.7353928,-38.5641719,São Gerardo,C23.3
C23.4 AV. OLAVO BILAC X AV. BEZERRA DE MENEZES,AMC,DB3,Antonio Luiz Junior Araujo,18/2020,11/12/2020,15/12/2025,SECUROS,1,,Espaço Público,FALSE,LPR,,,"R. Olavo Bilac, 2005 - Álvaro Weyne",SER 3,-3.7354045,-38.5642363,Presidente Kennedy,C23.4
C24 R.PE. ANCHIETA X AV. BEZERRA DE MENEZES,AMC,DB3,Antonio Luiz Junior Araujo,18/2020,11/12/2020,15/12/2025,SECUROS,,1,Espaço Público,FALSE,Pesquisa TK,,,"R. Padre Anchieta, 1450 - Jacarecanga",SER 3,-3.733387,-38.552249,Parquelândia,C24
C24.1 R.PE. ANCHIETA X AV. BEZERRA DE MENEZES,AMC,DB3,Antonio Luiz Junior Araujo,18/2020,11/12/2020,15/12/2025,SECUROS,1,,Espaço Público,FALSE,LPR,,,"Av. Bezerra de Menezes, 802 - Farias Brito",SER 3,-3.7329968,-38.5521087,São Gerardo,C24.1
C24.2 R.PE. ANCHIETA X AV. BEZERRA DE MENEZES,AMC,DB3,Antonio Luiz Junior Araujo,18/2020,11/12/2020,15/12/2025,SECUROS,1,,Espaço Público,FALSE,LPR,,,"Rod. Pres. Juscelino Kubitschek, 871 - Farias Brito",SER 3,-3.7333442,-38.5523938,Parquelândia,C24.2
C24.3 R.PE. ANCHIETA X AV. BEZERRA DE MENEZES,AMC,DB3,Antonio Luiz Junior Araujo,18/2020,11/12/2020,15/12/2025,SECUROS,1,,Espaço Público,FALSE,LPR,,,"R. Padre Anchieta, 1429 - Jacarecanga",SER 3,-3.7327992,-38.5522517,São Gerardo,C24.3
C25 R. PE. IBIAPINA X AV. BEZERRA DE MENEZES,AMC,DB3,Antonio Luiz Junior Araujo,18/2020,11/12/2020,15/12/2025,SECUROS,,1,Espaço Público,FALSE,Pesquisa TK,,,"R. Meton de Alencar, 1839 - Centro",SER 12,-3.7307231,-38.5398895,Centro,C25
C26 R. PE. ANCHIETA X AV. FRANCISCO SÁ,AMC,DB3,Antonio Luiz Junior Araujo,18/2020,11/12/2020,15/12/2025,SECUROS,,1,Espaço Público,FALSE,Pesquisa TK,,,"Av. Francisco Sá, 2701 - Barra do Ceará",SER 1,-3.7200105,-38.5496423,Carlito Pamplona,C26
C27 R. JACINTO MATOS X AV. PRES. CASTELO BRANCO,AMC,DB3,Antonio Luiz Junior Araujo,18/2020,11/12/2020,15/12/2025,SECUROS,,1,Espaço Público,FALSE,Pesquisa TK,,,"Av. Pres. Castelo Branco, 2047 - Carlito Pamplona",SER 1,-3.7145904,-38.5464061,Jacarecanga,C27
C27.1 R. JACINTO MATOS X AV. PRES. CASTELO BRANCO,AMC,DB3,Antonio Luiz Junior Araujo,18/2020,11/12/2020,15/12/2025,SECUROS,1,,Espaço Público,FALSE,LPR,,,"Av. Pres. Castelo Branco, 2010 - Jacarecanga",SER 1,-3.7143947,-38.5467604,Jacarecanga,C27.1
C27.2 R. JACINTO MATOS X AV. PRES. CASTELO BRANCO,AMC,DB3,Antonio Luiz Junior Araujo,18/2020,11/12/2020,15/12/2025,SECUROS,1,,Espaço Público,FALSE,LPR,,,"Av. Pres. Castelo Branco, 2085 - Carlito Pamplona",SER 1,-3.7146040428842806,-38.54591450536748,Jacarecanga,C27.2
C28 AV. JOSÉ BASTOS X AV. CARNEIRO DE MENDONÇA,AMC,DB3,Antonio Luiz Junior Araujo,18/2020,11/12/2020,15/12/2025,SECUROS,,1,Espaço Público,FALSE,Pesquisa TK,,,"Av. Américo Barreira, 5939 - Parangaba",SER 4,-3.7642340248270223,-38.566692136620354,Parangaba,C28
C28.1 AV. JOSÉ BASTOS X AV. CARNEIRO DE MENDONÇA,AMC,DB3,Antonio Luiz Junior Araujo,18/2020,11/12/2020,15/12/2025,SECUROS,1,,Espaço Público,FALSE,LPR,,,"Av. Américo Barreira, 5952 - Jacarecanga",SER 11,-3.7637637,-38.5665432,Demócrito Rocha,C28.1
C28.2 AV. JOSÉ BASTOS X AV. CARNEIRO DE MENDONÇA,AMC,DB3,Antonio Luiz Junior Araujo,18/2020,11/12/2020,15/12/2025,SECUROS,1,,Espaço Público,FALSE,LPR,,,"Av. Américo Barreira, 5981 - Jacarecanga",SER 11,-3.76446084,-38.5670047,Jóquei Clube,C28.2
C29 AV. SILAS MUNGUBA X R. GERMANO FRANKLIN,AMC,DB3,Antonio Luiz Junior Araujo,18/2020,11/12/2020,15/12/2025,SECUROS,,1,Espaço Público,FALSE,Pesquisa TK,,,"Rua Germano Franck, 663 - Parangaba",SER 4,-3.7773490769131737,-38.562035533939664,Parangaba,C29
C29.1 AV. SILAS MUNGUBA X R. GERMANO FRANKLIN,AMC,DB3,Antonio Luiz Junior Araujo,18/2020,11/12/2020,15/12/2025,SECUROS,1,,Espaço Público,FALSE,LPR,,,"Av. Dr. Silas Munguba, 11 - Parangaba",SER 4,-3.7774115059089493,-38.56183908171,Parangaba,C29.1
C29.2 AV. SILAS MUNGUBA X R. GERMANO FRANKLIN,AMC,DB3,Antonio Luiz Junior Araujo,18/2020,11/12/2020,15/12/2025,SECUROS,1,,Espaço Público,FALSE,LPR,BICI,,"Rua Germano Franck, 725 - Parangaba",SER 4,-3.7773515718943065,-38.56223309089586,Parangaba,C29.2
C31 AV. DES. MOREIRA X AV. ANTÔNIO SALES,AMC,DB3,Antonio Luiz Junior Araujo,18/2020,11/12/2020,15/12/2025,SECUROS,,1,Espaço Público,FALSE,Pesquisa TK,,,"Av. Antônio Sales, 2520 - Dionísio Torres",SER 2,-3.7457035873004547,-38.5013005858371,Dionísio Torres,C31
C31.1 AV. DES. MOREIRA X AV. ANTÔNIO SALES,AMC,DB3,Antonio Luiz Junior Araujo,18/2020,11/12/2020,15/12/2025,SECUROS,1,,Espaço Público,FALSE,LPR,,,"Av. Des. Moreira, 2264 - Aldeota",SER 2,-3.745607480996523,-38.50138185604505,Dionísio Torres,C31.1
C31.2 AV. DES. MOREIRA X AV. ANTÔNIO SALES,AMC,DB3,Antonio Luiz Junior Araujo,18/2020,11/12/2020,15/12/2025,SECUROS,1,,Espaço Público,FALSE,LPR,BICI,,"Av. Antônio Sales, 2462 - Dionísio Torres",SER 2,-3.745565506979237,-38.50185084980246,Dionísio Torres,C31.2
C31.3 AV. DES. MOREIRA X AV. ANTÔNIO SALES,AMC,DB3,Antonio Luiz Junior Araujo,18/2020,11/12/2020,15/12/2025,SECUROS,1,,Espaço Público,FALSE,LPR,,,"Av. Des. Moreira, 2285 - Aldeota",SER 2,-3.7459656967238937,-38.50138884587354,Dionísio Torres,C31.3
C32 AV. GODOFREDO MACIEL X AV. PRES. COSTA E SILVA,AMC,DB3,Antonio Luiz Junior Araujo,18/2020,11/12/2020,15/12/2025,SECUROS,,1,Espaço Público,FALSE,Pesquisa TK,,,"R. Wenefrido Melo, 550 - Mondubim",SER 10,-3.811669969564985,-38.57488622242652,Mondubim,C32
C32.1 AV. GODOFREDO MACIEL X AV. PRES. COSTA E SILVA,AMC,DB3,Antonio Luiz Junior Araujo,18/2020,11/12/2020,15/12/2025,SECUROS,1,,Espaço Público,FALSE,LPR,,,"Av. Godofredo Maciel, 4190 - Mondubim",SER 10,-3.8113570793017764,-38.57461201433996,Mondubim,C32.1
C32.2 AV. GODOFREDO MACIEL X AV. PRES. COSTA E SILVA,AMC,DB3,Antonio Luiz Junior Araujo,18/2020,11/12/2020,15/12/2025,SECUROS,1,,Espaço Público,FALSE,LPR,,,"R. Wenefrido Melo, 550 - Mondubim",SER 10,-3.8116143099682076,-38.57497030955371,Mondubim,C32.2
C32.3 AV. GODOFREDO MACIEL X AV. PRES. COSTA E SILVA,AMC,DB3,Antonio Luiz Junior Araujo,18/2020,11/12/2020,15/12/2025,SECUROS,1,,Espaço Público,FALSE,LPR,,,"Av. Presidente Costa e Silva, 553 - Mondubim",SER 10,-3.811740278869077,-38.574427394755375,Mondubim,C32.3
C32.4 AV. GODOFREDO MACIEL X AV. PRES. COSTA E SILVA,AMC,DB3,Antonio Luiz Junior Araujo,18/2020,11/12/2020,15/12/2025,SECUROS,1,,Espaço Público,FALSE,LPR,,,"Av. Godofredo Maciel, 4253 - Parangaba",SER 10,-3.8121800532911214,-38.5747622314783,Mondubim,C32.4
C33 AV. BERNARDO MANUEL X AV. SILAS MUNGUBA,AMC,DB3,Antonio Luiz Junior Araujo,18/2020,11/12/2020,15/12/2025,SECUROS,,1,Espaço Público,FALSE,Pesquisa TK,,,"Av. Dr. Silas Munguba, 2830 - Serrinha",SER 8,-3.787726502723482,-38.54784941919935,Itaperi,C33
C33.1 AV. BERNARDO MANUEL X AV. SILAS MUNGUBA,AMC,DB3,Antonio Luiz Junior Araujo,18/2020,11/12/2020,15/12/2025,SECUROS,1,,Espaço Público,FALSE,LPR,,,"Av. Bernardo Manuel, 7911 - Parque Dois Irmãos",SER 8,-3.7878335737132622,-38.548043058551755,Itaperi,C33.1
C33.2 AV. BERNARDO MANUEL X AV. SILAS MUNGUBA,AMC,DB3,Antonio Luiz Junior Araujo,18/2020,11/12/2020,15/12/2025,SECUROS,1,,Espaço Público,FALSE,LPR,,,"Av. Dr. Silas Munguba, 2919 - Itaperi",SER 8,-3.787715832785017,-38.54766155519783,Itaperi,C33.2
C33.3 AV. BERNARDO MANUEL X AV. SILAS MUNGUBA,AMC,DB3,Antonio Luiz Junior Araujo,18/2020,11/12/2020,15/12/2025,SECUROS,1,,Espaço Público,FALSE,LPR,,,"Av. Bernardo Manuel, 7864 - Serrinha",SER 8,-3.7872879595724607,-38.54786134951631,Serrinha,C33.3
C33.4 AV. BERNARDO MANUEL X AV. SILAS MUNGUBA,AMC,DB3,Antonio Luiz Junior Araujo,18/2020,11/12/2020,15/12/2025,SECUROS,1,,Espaço Público,FALSE,LPR,,,"Av. Dr. Silas Munguba, 2812 - Parangaba",SER 8,-3.7874664129154594,-38.548258146605065,Itaperi,C33.4
C36 R. PROF. OTÁVIO LOBO X AV. SANTOS DUMONT,AMC,DB3,Antonio Luiz Junior Araujo,18/2020,11/12/2020,15/12/2025,SECUROS,,1,Espaço Público,FALSE,Pesquisa TK,,,"Av. Santos Dumont, 6063 - Manuel Dias Branco",SER 2,-3.742757826920739,-38.47786187909634,Papicu,C36
C36.1 R. PROF. OTÁVIO LOBO X AV. SANTOS DUMONT,AMC,DB3,Antonio Luiz Junior Araujo,18/2020,11/12/2020,15/12/2025,SECUROS,1,,Espaço Público,FALSE,LPR,,,"Av. Santos Dumont, 6060 - Cocó",SER 2,-3.7426929044953305,-38.4781086237406,Papicu,C36.1
C36.2 R. PROF. OTÁVIO LOBO X AV. SANTOS DUMONT,AMC,DB3,Antonio Luiz Junior Araujo,18/2020,11/12/2020,15/12/2025,SECUROS,1,,Espaço Público,FALSE,LPR,,,"Av. Santos Dumont, 6060 - Cocó",SER 7,-3.7428333640853233,-38.478185156397174,Cocó,C36.2
C36.3 R. PROF. OTÁVIO LOBO X AV. SANTOS DUMONT,AMC,DB3,Antonio Luiz Junior Araujo,18/2020,11/12/2020,15/12/2025,SECUROS,1,,Espaço Público,FALSE,LPR,,,"R. Professor Otávio Lobo, 491 - Cocó",SER 7,-3.743073847526932,-38.47802849653504,Cocó,C36.3
C37 AV. DES. GONZAGA X AV. OLIVEIRA PAIVA,AMC,DB3,Antonio Luiz Junior Araujo,18/2020,11/12/2020,15/12/2025,SECUROS,,1,Espaço Público,FALSE,Pesquisa TK,,,"Av. Oliveira Paiva, 639 - Cidade dos Funcionários",SER 6,-3.7969942318459124,-38.49989699597946,Cidade dos Funcionários,C37
C37.1 AV. DES. GONZAGA X AV. OLIVEIRA PAIVA,AMC,DB3,Antonio Luiz Junior Araujo,18/2020,11/12/2020,15/12/2025,SECUROS,1,,Espaço Público,FALSE,LPR,,,"Av. Oliveira Paiva, 695 - Cidade dos Funcionários",SER 6,-3.7970285493135068,-38.4996851041252,Cidade dos Funcionários,C37.1
C37.2 AV. DES. GONZAGA X AV. OLIVEIRA PAIVA,AMC,DB3,Antonio Luiz Junior Araujo,18/2020,11/12/2020,15/12/2025,SECUROS,1,,Espaço Público,FALSE,LPR,,,"Av. Desembargador Gonzaga, 1128 - Cidade dos Funcionários",SER 6,-3.7968847456764014,-38.50009710912743,Cidade dos Funcionários,C37.2
C37.3 AV. DES. GONZAGA X AV. OLIVEIRA PAIVA,AMC,DB3,Antonio Luiz Junior Araujo,18/2020,11/12/2020,15/12/2025,SECUROS,1,,Espaço Público,FALSE,LPR,,,"Av. Desembargador Gonzaga, 1143 - Cidade dos Funcionários",SER 6,-3.7974174200532698,-38.499846096145845,Cidade dos Funcionários,C37.3
C37.4 AV. DES. GONZAGA X AV. OLIVEIRA PAIVA,AMC,DB3,Antonio Luiz Junior Araujo,18/2020,11/12/2020,15/12/2025,SECUROS,1,,Espaço Público,FALSE,LPR,BICI,,"Av. Oliveira Paiva, 530 - Cidade dos Funcionários",SER 6,-3.7972953136134002,-38.5002735698901,Cidade dos Funcionários,C37.4
C38 R. ANTÔNIO FIÚZA X R. BR. DE SOBRAL,AMC,DB3,Antonio Luiz Junior Araujo,18/2020,11/12/2020,15/12/2025,SECUROS,,1,Espaço Público,FALSE,Pesquisa TK,,,"R. César Rossas, 1 - Montese",SER 4,-3.768392060966524,-38.551852613256926,Montese,C38
C38.1 R. ANTÔNIO FIÚZA X R. BR. DE SOBRAL,AMC,DB3,Antonio Luiz Junior Araujo,18/2020,11/12/2020,15/12/2025,SECUROS,1,,Espaço Público,FALSE,LPR,,,"R. César Rossas, 27 - Montese",SER 4,-3.768340158869427,-38.55212904706303,Montese,C38.1
C38.2 R. ANTÔNIO FIÚZA X R. BR. DE SOBRAL,AMC,DB3,Antonio Luiz Junior Araujo,18/2020,11/12/2020,15/12/2025,SECUROS,1,,Espaço Público,FALSE,LPR,,,"R Três Marias, 181 - Montese",SER 4,-3.7684795,-38.5515147,Montese,C38.2
C39 R. PE. PEDRO DE ALENCAR. X R. TEN. JURANDIR DE ALENCAR,AMC,DB3,Antonio Luiz Junior Araujo,18/2020,11/12/2020,15/12/2025,SECUROS,,1,Espaço Público,FALSE,Pesquisa TK,,,"Rua Tenente Jurandir Alencar, 168 - Messejana",SER 6,-3.831664613134411,-38.493924932552595,Messejana,C39
C39.1 R. PE. PEDRO DE ALENCAR. X R. TEN. JURANDIR DE ALENCAR,AMC,DB3,Antonio Luiz Junior Araujo,18/2020,11/12/2020,15/12/2025,SECUROS,1,,Espaço Público,FALSE,LPR,,,"Rua Tenente Jurandir Alencar, 172 - Messejana",SER 6,-3.8316826747840773,-38.49378834816223,Messejana,C39.1
C39.2 R. PE. PEDRO DE ALENCAR. X R. TEN. JURANDIR DE ALENCAR,AMC,DB3,Antonio Luiz Junior Araujo,18/2020,11/12/2020,15/12/2025,SECUROS,1,,Espaço Público,FALSE,LPR,,,"R. Padre Pedro de Alencar, 428 - Messejana",SER 6,-3.8315024247035643,-38.4939238161785,Messejana,C39.2
C40 AV. DR. THEBERGE X AV. SGT. HERMINIO SAMPAIO,AMC,DB3,Antonio Luiz Junior Araujo,18/2020,11/12/2020,15/12/2025,SECUROS,,1,Espaço Público,FALSE,Pesquisa TK,,,"Av. Dr. Theberge, 3103 - Pres. Kennedy",SER 3,-3.7278081030377392,-38.56924285164174,Presidente Kennedy,C40
C41 AV. JOÃO PESSOA X AV. CARNEIRO DE MENDONÇA,AMC,DB3,Antonio Luiz Junior Araujo,18/2020,11/12/2020,15/12/2025,SECUROS,,1,Espaço Público,FALSE,Pesquisa TK,,,"Av. João Pessoa, 6525 - Damas",SER 4,-3.767323,-38.559766,Parangaba,C41
C41.1 AV. JOÃO PESSOA X AV. CARNEIRO DE MENDONÇA,AMC,DB3,Antonio Luiz Junior Araujo,18/2020,11/12/2020,15/12/2025,SECUROS,1,,Espaço Público,FALSE,LPR,,,"Av. Carneiro de Mendonça, 10 - Demócrito Rocha",SER 4,-3.7671460718182295,-38.56018551333725,Parangaba,C41.1
C42 AV. AMERICO BARREIRA X R. GOMES BRASIL,AMC,DB3,Antonio Luiz Junior Araujo,18/2020,11/12/2020,15/12/2025,SECUROS,,1,Espaço Público,FALSE,Pesquisa TK,,,"R. Gomes Brasil, 548 - Parangaba",SER 4,-3.7702269591440847,-38.57036850587788,Parangaba,C42
C42.1 AV. AMERICO BARREIRA X R. GOMES BRASIL,AMC,DB3,Antonio Luiz Junior Araujo,18/2020,11/12/2020,15/12/2025,SECUROS,1,,Espaço Público,FALSE,LPR,,,"R. Gomes Brasil, 534 - Parangaba",SER 4,-3.7702437485309885,-38.57015219959263,Parangaba,C42.1
C42.2 AV. AMERICO BARREIRA X R. GOMES BRASIL,AMC,DB3,Antonio Luiz Junior Araujo,18/2020,11/12/2020,15/12/2025,SECUROS,1,,Espaço Público,FALSE,LPR,,,"Av. Américo Barreira, 1152 - Jacarecanga",SER 11,-3.7696836590329017,-38.57032399126196,Jóquei Clube,C42.2
C42.3 AV. AMERICO BARREIRA X R. GOMES BRASIL,AMC,DB3,Antonio Luiz Junior Araujo,18/2020,11/12/2020,15/12/2025,SECUROS,1,,Espaço Público,FALSE,LPR,,,"Av. Senador Fernandes Távora, 5 - Jóquei Clube",SER 11,-3.7698955725557437,-38.570694773051216,Jóquei Clube,C42.3
C43 AV. ROGACIANO LEITE X AV. MURILO BORGES,AMC,DB3,Antonio Luiz Junior Araujo,18/2020,11/12/2020,15/12/2025,SECUROS,,1,Espaço Público,FALSE,Pesquisa TK,,,"Av. General Murilo Borges, 16 - Eng. Luciano Cavalcante",SER 7,-3.7676315726338876,-38.49705064392342,Salinas,C43
C43.1 AV. ROGACIANO LEITE X AV. MURILO BORGES,AMC,DB3,Antonio Luiz Junior Araujo,18/2020,11/12/2020,15/12/2025,SECUROS,1,,Espaço Público,FALSE,LPR,,,"Av. General Murilo Borges, 16 - Eng. Luciano Cavalcante",SER 7,-3.7676885882462985,-38.49735793205645,Salinas,C43.1
C43.2 AV. ROGACIANO LEITE X AV. MURILO BORGES,AMC,DB3,Antonio Luiz Junior Araujo,18/2020,11/12/2020,15/12/2025,SECUROS,1,,Espaço Público,FALSE,LPR,,,"Av. Rogaciano Leite, 1124 - Guararapes",SER 7,-3.7675389,-38.4969161,Salinas,C43.2
C43.3 AV. ROGACIANO LEITE X AV. MURILO BORGES,AMC,DB3,Antonio Luiz Junior Araujo,18/2020,11/12/2020,15/12/2025,SECUROS,1,,Espaço Público,FALSE,LPR,,,"Av. Rogaciano Leite, 1425 - Guararapes",SER 7,-3.7680961,-38.4970825,Engenheiro Luciano Cavalcante,C43.3
C43.4 AV. ROGACIANO LEITE X AV. MURILO BORGES,AMC,DB3,Antonio Luiz Junior Araujo,18/2020,11/12/2020,15/12/2025,SECUROS,1,,Espaço Público,FALSE,LPR,,,"Av. Rogaciano Leite, 1124 - Guararapes",SER 7,-3.7675126,-38.4969868,Salinas,C43.4
C44 AV. BERNARDO MANOEL X AV. PRES. COSTA E SILVA,AMC,DB3,Antonio Luiz Junior Araujo,18/2020,11/12/2020,15/12/2025,SECUROS,,1,Espaço Público,FALSE,Pesquisa TK,,,"Av. Presidente Costa e Silva, 179 - Mondubim",SER 10,-3.8210611178353533,-38.558312162603144,Mondubim,C44
C44.1 AV. BERNARDO MANOEL X AV. PRES. COSTA E SILVA,AMC,DB3,Antonio Luiz Junior Araujo,18/2020,11/12/2020,15/12/2025,SECUROS,1,,Espaço Público,FALSE,LPR,BICI,,"Av. Bernardo Manuel, 6240 - Parque Dois Irmãos",SER 10,-3.820831035628441,-38.558135424450356,Mondubim,C44.1
C44.2 AV. BERNARDO MANOEL X AV. PRES. COSTA E SILVA,AMC,DB3,Antonio Luiz Junior Araujo,18/2020,11/12/2020,15/12/2025,SECUROS,1,,Espaço Público,FALSE,LPR,,,"Av. Presidente Costa e Silva, 179 - Mondubim",SER 10,-3.8211471,-38.5583676,Mondubim,C44.2
C44.3 AV. BERNARDO MANOEL X AV. PRES. COSTA E SILVA,AMC,DB3,Antonio Luiz Junior Araujo,18/2020,11/12/2020,15/12/2025,SECUROS,1,,Espaço Público,FALSE,LPR,,,"Av. João de Araújo Lima, 11 - Pref. José Walter",SER 8,-3.8216053,-38.5582477,Prefeito José Walter,C44.3
C44.4 AV. BERNARDO MANOEL X AV. PRES. COSTA E SILVA,AMC,DB3,Antonio Luiz Junior Araujo,18/2020,11/12/2020,15/12/2025,SECUROS,1,,Espaço Público,FALSE,LPR,,,"Av. Presidente Costa e Silva, 2721 - Mondubim",SER 8,-3.821186440912178,-38.55792151620555,Prefeito José Walter,C44.4
C45 AV. SEN. VIRGÍLIO TÁVORA X AV. DOM LUÍS,AMC,DB3,Antonio Luiz Junior Araujo,18/2020,11/12/2020,15/12/2025,SECUROS,,1,Espaço Público,FALSE,Pesquisa TK,,,"Av. Dom Luís, 1007 - Aldeota",SER 2,-3.734877753605887,-38.49265443651877,Aldeota,C45
C45.1 AV. SEN. VIRGÍLIO TÁVORA X AV. DOM LUÍS,AMC,DB3,Antonio Luiz Junior Araujo,18/2020,11/12/2020,15/12/2025,SECUROS,1,,Espaço Público,FALSE,LPR,BICI,,"Av. Dom Luís, 1023 - Meireles",SER 2,-3.734986369508006,-38.49229535862883,Aldeota,C45.1
C45.2 AV. SEN. VIRGÍLIO TÁVORA X AV. DOM LUÍS,AMC,DB3,Antonio Luiz Junior Araujo,18/2020,11/12/2020,15/12/2025,SECUROS,1,,Espaço Público,FALSE,LPR,,,"Av. Senador Virgílio Távora, 879 - Dionísio Torres",SER 2,-3.7350493,-38.4926238,Aldeota,C45.2
C45.3 AV. SEN. VIRGÍLIO TÁVORA X AV. DOM LUÍS,AMC,DB3,Antonio Luiz Junior Araujo,18/2020,11/12/2020,15/12/2025,SECUROS,1,,Espaço Público,FALSE,LPR,,,"Av. Senador Virgílio Távora, 884 - Meireles",SER 2,-3.73457,-38.4924829,Meireles,C45.3
C45.4 AV. SEN. VIRGÍLIO TÁVORA X AV. DOM LUÍS,AMC,DB3,Antonio Luiz Junior Araujo,18/2020,11/12/2020,15/12/2025,SECUROS,1,,Espaço Público,FALSE,LPR,,,"Av. Dom Luís, 1009 - Aldeota",SER 2,-3.734816311604267,-38.49228954919945,Meireles,C45.4
C46 AV. ALMIRANTE JACEGUAY X AV. ALMIRANTE BARROSO,AMC,DB3,Antonio Luiz Junior Araujo,18/2020,11/12/2020,15/12/2025,SECUROS,,1,Espaço Público,FALSE,Pesquisa TK,,,"Av. Almirante Barroso, 441 - Praia de Iracema",SER 12,-3.720668613,-38.51936763,Praia de Iracema,C46
C47 AV. OSORIO DE PAIVA X R. GOMES BRASIL,AMC,DB3,Antonio Luiz Junior Araujo,18/2020,11/12/2020,15/12/2025,SECUROS,,1,Espaço Público,FALSE,Pesquisa TK,,,"R. Eduardo Perdigão, 51 - Parangaba",SER 4,-3.774837,-38.565322,Parangaba,C47
C48 AV. VISC. DO RIO BRANCO X AV. PONTES VIEIRA,AMC,DB3,Antonio Luiz Junior Araujo,18/2020,11/12/2020,15/12/2025,SECUROS,,1,Espaço Público,FALSE,Pesquisa TK,,,"Av. Treze de Maio, 32 - Fátima",SER 4,-3.753454,-38.520602,Fátima,C48
C48.1 AV. VISC. DO RIO BRANCO X AV. PONTES VIEIRA,AMC,DB3,Antonio Luiz Junior Araujo,18/2020,11/12/2020,15/12/2025,SECUROS,1,,Espaço Público,FALSE,LPR,,,"Av. Visconde do Rio Branco, 3700 - Fátima",SER 4,-3.75385272907697,-38.52048196694641,Fátima,C48.1
C48.2 AV. VISC. DO RIO BRANCO X AV. PONTES VIEIRA,AMC,DB3,Antonio Luiz Junior Araujo,18/2020,11/12/2020,15/12/2025,SECUROS,1,,Espaço Público,FALSE,LPR,,,"Av. Pontes Vieira, 13 - São João do Tauape",SER 2,-3.7535139223702654,-38.520287356542426,Joaquim Távora,C48.2
C48.3 AV. VISC. DO RIO BRANCO X AV. PONTES VIEIRA,AMC,DB3,Antonio Luiz Junior Araujo,18/2020,11/12/2020,15/12/2025,SECUROS,1,,Espaço Público,FALSE,LPR,,,"Av. Visconde do Rio Branco, 3743 - São João do Tauape",SER 4,-3.7537801,-38.5204634,Fátima,C48.3
C48.4 AV. VISC. DO RIO BRANCO X AV. PONTES VIEIRA,AMC,DB3,Antonio Luiz Junior Araujo,18/2020,11/12/2020,15/12/2025,SECUROS,1,,Espaço Público,FALSE,LPR,,,"Av. Treze de Maio, 31 - Fátima",SER 4,-3.7535691946547414,-38.52073215944018,Fátima,C48.4
C49 AV. PE. ANTONIO TOMAS X R.MONS. CATÃO,AMC,DB3,Antonio Luiz Junior Araujo,18/2020,11/12/2020,15/12/2025,SECUROS,,1,Espaço Público,FALSE,Pesquisa TK,,,"R. Monsenhor Catão, 1140 - Meireles",SER 2,-3.7427762244947638,-38.49192482384456,Aldeota,C49
C49.1 AV. PE. ANTONIO TOMAS X R.MONS. CATÃO,AMC,DB3,Antonio Luiz Junior Araujo,18/2020,11/12/2020,15/12/2025,SECUROS,1,,Espaço Público,FALSE,LPR,,,"Av. Padre Antônio Tomás, 2248 - Aldeota",SER 2,-3.7427351465584553,-38.49200352984936,Aldeota,C49.1
C49.2 AV. PE. ANTONIO TOMAS X R.MONS. CATÃO,AMC,DB3,Antonio Luiz Junior Araujo,18/2020,11/12/2020,15/12/2025,SECUROS,1,,Espaço Público,FALSE,LPR,,,"Av. Padre Antônio Tomás, 2291 - Aldeota",SER 2,-3.7427343291976696,-38.49153230291578,Aldeota,C49.2
C49.3 AV. PE. ANTONIO TOMAS X R.MONS. CATÃO,AMC,DB3,Antonio Luiz Junior Araujo,18/2020,11/12/2020,15/12/2025,SECUROS,1,,Espaço Público,FALSE,LPR,,,"R. Monsenhor Catão, 1140 - Meireles",SER 2,-3.74285549903576,-38.49194963234444,Aldeota,C49.3
C50 AV. AGUANAMBI X AV. SORIANO ALBUQUERQUE,AMC,DB3,Antonio Luiz Junior Araujo,18/2020,11/12/2020,15/12/2025,SECUROS,,1,Espaço Público,FALSE,Pesquisa TK,,,"Av. Aguanambi, 1376 - Fátima",SER 4,-3.748612910093284,-38.52424555321557,Fátima,C50
C51 R.PROF. MANOEL LOURENÇO X R.GEORGE ROCHA,AMC,DB3,Antonio Luiz Junior Araujo,18/2020,11/12/2020,15/12/2025,SECUROS,,1,Espaço Público,FALSE,Pesquisa TK,,,"R. Prof. Manoel Lourenço, 410 - Jóquei Clube",SER 11,-3.763867,-38.573253,Jóquei Clube,C51
C52 AV. DES. MOREIRA X AV. PE. ANTÔNIO TOMÁS,AMC,DB3,Antonio Luiz Junior Araujo,18/2020,11/12/2020,15/12/2025,SECUROS,,1,Espaço Público,FALSE,Pesquisa TK,,,"Av. Des. Moreira, 1621 - Aldeota",SER 2,-3.7402534,-38.4995845,Aldeota,C52
C53 AV. SEN. VIRGÍLIO TÁVORA X AV. PONTES VIEIRA,AMC,DB3,Antonio Luiz Junior Araujo,18/2020,11/12/2020,15/12/2025,SECUROS,,1,Espaço Público,FALSE,Pesquisa TK,,,"R. Santa Teresinha do Menino Jesus e da Sagrada Face, 5074 - Dionísio Torres",SER 2,-3.7509286922850036,-38.49758588875049,Dionísio Torres,C53
C54 AV. ENGENHEIRO SANTANA JR X R. PROF. SILAS RIBEIRO,AMC,DB3,Antonio Luiz Junior Araujo,18/2020,11/12/2020,15/12/2025,SECUROS,,1,Espaço Público,FALSE,Pesquisa TK,,,"R. Prof. Sila Ribeiro, 248 - Papicu",SER 2,-3.7369900580056106,-38.48277629183799,Papicu,C54
C55 R. CLARA DE ASSIS X AV. JORN. TOMÁS COELHO,AMC,DB3,Antonio Luiz Junior Araujo,18/2020,11/12/2020,15/12/2025,SECUROS,,1,Espaço Público,FALSE,Pesquisa TK,,,"Av. Jornalista Tomaz Coelho, 720 - Messejana",SER 6,-3.8315218194973935,-38.50286441244195,Messejana,C55
C55.1 R. CLARA DE ASSIS X AV. JORN. TOMÁS COELHO,AMC,DB3,Antonio Luiz Junior Araujo,18/2020,11/12/2020,15/12/2025,SECUROS,1,,Espaço Público,FALSE,LPR,,,"R. Santa Clara de Assis, 651 - Messejana",SER 6,-3.8313233703813236,-38.50263498213327,Messejana,C55.1
C55.2 R. CLARA DE ASSIS X AV. JORN. TOMÁS COELHO,AMC,DB3,Antonio Luiz Junior Araujo,18/2020,11/12/2020,15/12/2025,SECUROS,1,,Espaço Público,FALSE,LPR,,,"Av. Jornalista Tomaz Coelho, 720 - Messejana",SER 6,-3.8316040163765077,-38.50251674731255,Messejana,C55.2
C56 R. ILDEFONSO ALBANO X AV. HERÁCLITO GRAÇA,AMC,DB3,Antonio Luiz Junior Araujo,18/2020,11/12/2020,15/12/2025,SECUROS,,1,Espaço Público,FALSE,Pesquisa TK,,,R. Ildefonso Albano X Av. HeráClito GraçA,SER 2,-3.73692,-38.5146,Aldeota,C56
C57 AV. LUCIANO CARNEIRO X AV. EDUARDO GIRÃO,AMC,DB3,Antonio Luiz Junior Araujo,18/2020,11/12/2020,15/12/2025,SECUROS,,1,Espaço Público,FALSE,Pesquisa TK,,,"Av. Luciano Carneiro, 505 - Parreão",SER 4,-3.752278817707144,-38.532737563223066,Fátima,C57
C57.1 AV. LUCIANO CARNEIRO X AV. EDUARDO GIRÃO,AMC,DB3,Antonio Luiz Junior Araujo,18/2020,11/12/2020,15/12/2025,SECUROS,1,,Espaço Público,FALSE,LPR,,,"Av. Luciano Carneiro, 505 - Parreão",SER 4,-3.7524494338784304,-38.53287519944347,Fátima,C57.1
C57.2 AV. LUCIANO CARNEIRO X AV. EDUARDO GIRÃO,AMC,DB3,Antonio Luiz Junior Araujo,18/2020,11/12/2020,15/12/2025,SECUROS,1,,Espaço Público,FALSE,LPR,,,"Av. Eduardo Girão, 116 - Fátima",SER 4,-3.7522261874051965,-38.53248010268535,Fátima,C57.2
C57.3 AV. LUCIANO CARNEIRO X AV. EDUARDO GIRÃO,AMC,DB3,Antonio Luiz Junior Araujo,18/2020,11/12/2020,15/12/2025,SECUROS,1,,Espaço Público,FALSE,LPR,,,"Av. Luciano Carneiro, 522 - Parreão, Fortaleza - CE",SER 4,-3.7521174701938746,-38.53305026616257,Fátima,C57.3
C58 AV. JOSÉ JATAHY X AV. FRANCISCO SÁ,AMC,DB3,Antonio Luiz Junior Araujo,18/2020,11/12/2020,15/12/2025,SECUROS,,1,Espaço Público,FALSE,Pesquisa TK,,,"Av. Francisco Sá, 2394 - Jacarecanga",SER 1,-3.721016635300844,-38.5466152824111,Jacarecanga,C58
C58.1 AV. JOSÉ JATAHY X AV. FRANCISCO SÁ,AMC,DB3,Antonio Luiz Junior Araujo,18/2020,11/12/2020,15/12/2025,SECUROS,1,,Espaço Público,FALSE,LPR,,,"Av. Francisco Sá, 2337 - Farias Brito",SER 1,-3.7209460095494733,-38.54641202613619,Jacarecanga,C58.1
C58.2 AV. JOSÉ JATAHY X AV. FRANCISCO SÁ,AMC,DB3,Antonio Luiz Junior Araujo,18/2020,11/12/2020,15/12/2025,SECUROS,1,,Espaço Público,FALSE,LPR,,,"Av. Francisco Sá, 2394 - Jacarecanga",SER 1,-3.7206272753015828,-38.546702232205,Jacarecanga,C58.2
C59 AV. JOSÉ JATAHY X AV. SARGENTO HERMINIO,AMC,DB3,Antonio Luiz Junior Araujo,18/2020,11/12/2020,15/12/2025,SECUROS,,1,Espaço Público,FALSE,Pesquisa TK,,,"Av. José Jatahy, 415 - Jacarecanga",SER 1,-3.724540112241022,-38.54626510831318,Jacarecanga,C59
C60 AV. JOSÉ JATAHY X AV. DUQUE DE CAXIAS,AMC,DB3,Antonio Luiz Junior Araujo,18/2020,11/12/2020,15/12/2025,SECUROS,,1,Espaço Público,FALSE,Pesquisa TK,,,"Av. José Jatahy, 1199 - Jacarecanga",SER 3,-3.7266814182134156,-38.54584160508336,Monte Castelo,C60
C61 AV. JOSÉ LEON X AV. ROGACIANO LEITE,AMC,DB3,Antonio Luiz Junior Araujo,18/2020,11/12/2020,15/12/2025,SECUROS,,1,Espaço Público,FALSE,Pesquisa TK,,,"Av. José Leon, 894 - Cidade dos Funcionários",SER 6,-3.7873524,-38.5034738,Jardim das Oliveiras,C61
C61.1 AV. JOSÉ LEON X AV. ROGACIANO LEITE,AMC,DB3,Antonio Luiz Junior Araujo,18/2020,11/12/2020,15/12/2025,SECUROS,1,,Espaço Público,FALSE,LPR,,,"Av. Dioguinho, 3522 - Vicente Pinzon, Fortaleza - CE",SER 6,-3.78733714,-38.5033926,Jardim das Oliveiras,C61.1
C62 AV. SANTOS DUMONT X AV. DIOGUINHO,AMC,DB3,Antonio Luiz Junior Araujo,18/2020,11/12/2020,15/12/2025,SECUROS,,1,Espaço Público,FALSE,Pesquisa TK,,,"Av. Santos Dumont, 8294 - Manuel Dias Branco",SER 7,-3.747047,-38.450467,Praia do Futuro I,C62
C62.1 AV. SANTOS DUMONT X AV. DIOGUINHO,AMC,DB3,Antonio Luiz Junior Araujo,18/2020,11/12/2020,15/12/2025,SECUROS,1,,Espaço Público,FALSE,LPR,,,"Av. Dioguinho, 3522 - Vicente Pinzon",SER 7,-3.7467186,-38.45064061,Praia do Futuro I,C62.1
C62.2 AV. SANTOS DUMONT X AV. DIOGUINHO,AMC,DB3,Antonio Luiz Junior Araujo,18/2020,11/12/2020,15/12/2025,SECUROS,1,,Espaço Público,FALSE,LPR,,,"Av. Dioguinho, 3699 - Vicente Pinzon",SER 7,-3.7473108,-38.450148,Praia do Futuro I,C62.2
C63 AV. OSÓRIO DE PAIVA X AV. AUGUSTO DOS ANJOS,AMC,DB3,Antonio Luiz Junior Araujo,18/2020,11/12/2020,15/12/2025,SECUROS,,1,Espaço Público,FALSE,Pesquisa TK,,,"Av. Gen. Osório de Paiva, 2462 - Parangaba",SER 5,-3.787052067910507,-38.58480495918827,Bonsucesso,C63
C64 AV. FREI CIRILO X R. CEL. ALVES RIBEIRO,AMC,DB3,Antonio Luiz Junior Araujo,18/2020,11/12/2020,15/12/2025,SECUROS,,1,Espaço Público,FALSE,LPR,,,"Av. Frei Cirilo, 4196 - Messejana",SER 6,-3.82083,-38.49589,Messejana,C64
C64.1 AV. FREI CIRILO X R. CEL. ALVES RIBEIRO,AMC,DB3,Antonio Luiz Junior Araujo,18/2020,11/12/2020,15/12/2025,SECUROS,1,,Espaço Público,FALSE,LPR,,,"Av. Frei Cirilo, 4196 - Messejana",SER 6,-3.8207432,-38.4959044,Messejana,C64.1
C65 AV. JOSÉ LEON X AV. DR. JOÃO MACIEL FILHO,AMC,DB3,Antonio Luiz Junior Araujo,18/2020,11/12/2020,15/12/2025,SECUROS,,1,Espaço Público,FALSE,Pesquisa TK,,,"Av. Dr. João Maciel Filho, 661 - Jardim Das Oliveiras",SER 6,-3.78913,-38.49655,Jardim das Oliveiras,C65
C66 AV. SILAS MUNGUBA X R. HERÓIS DO ACRE,AMC,DB3,Antonio Luiz Junior Araujo,18/2020,11/12/2020,15/12/2025,SECUROS,,1,Espaço Público,FALSE,Pesquisa TK,,,"Av. Dr. Silas Munguba, 5615 - Passaré",SER 8,-3.8031248654078653,-38.52849373798874,Passaré,C66
C67 AV. EXPEDICIONÁRIOS X AV. BORGES DE MELO,AMC,DB3,Antonio Luiz Junior Araujo,18/2020,11/12/2020,15/12/2025,SECUROS,,1,Espaço Público,FALSE,Pesquisa TK,,,"Av. Borges de Melo, 2686 - Fátima",SER 4,-3.7533413,-38.5375797,Fátima,C67
C69 AV. OSCAR ARARIPE X R. CEL. VIRGÍLIO NOGUEIRA,AMC,DB3,Antonio Luiz Junior Araujo,18/2020,11/12/2020,15/12/2025,SECUROS,,1,Espaço Público,FALSE,Pesquisa TK,,,"Av. Oscar Araripe, 1945 - Granja Lisboa",SER 5,-3.7881984717163903,-38.60847479682256,Bom Jardim,C69
C70 AV. CEL. CARVALHO X AV. SGTO. HERMÍNIO SAMPAIO,AMC,DB3,Antonio Luiz Junior Araujo,18/2020,11/12/2020,15/12/2025,SECUROS,,1,Espaço Público,FALSE,Pesquisa TK,,,"Av. Cel. Carvalho, 2850 - Padre Andrade",SER 3,-3.7337188720245,-38.58432884093789,Padre Andrade,C70
C71 AV. JOÃO PESSOA X R. BARÃO DE SOBRAL,AMC,DB3,Antonio Luiz Junior Araujo,18/2020,11/12/2020,15/12/2025,SECUROS,,1,Espaço Público,FALSE,Pesquisa TK,,,Av. JoãO Pessoa X R. BarãO De Sobral,SER 11,-3.764556,-38.55875,Demócrito Rocha,C71
C72 AV. BEIRA MAR. X AV. DA ABOLIÇÃO,AMC,DB3,Antonio Luiz Junior Araujo,18/2020,11/12/2020,15/12/2025,SECUROS,,1,Espaço Público,FALSE,Pesquisa TK,,,"Av. Vicente de Castro, 19 - Cais do Porto",SER 2,-3.7216871537643246,-38.47880633048682,Cais do Porto,C72
C72.1 AV. BEIRA MAR. X AV. DA ABOLIÇÃO,AMC,DB3,Antonio Luiz Junior Araujo,18/2020,11/12/2020,15/12/2025,SECUROS,1,,Espaço Público,FALSE,LPR,,,"Av. Vicente de Castro, 1 - Cais do Porto",SER 2,-3.7216553,-38.4788305,Cais do Porto,C72.1
C72.2 AV. BEIRA MAR. X AV. DA ABOLIÇÃO,AMC,DB3,Antonio Luiz Junior Araujo,18/2020,11/12/2020,15/12/2025,SECUROS,1,,Espaço Público,FALSE,LPR,,,"Av. Vicente de Castro, 1 - Cais do Porto",SER 2,-3.7217934,-38.479273,Mucuripe,C72.2
C73 AV. PROF. GOMES DE MATOS X R. DES. PRAXEDES,AMC,DB3,Antonio Luiz Junior Araujo,18/2020,11/12/2020,15/12/2025,SECUROS,,1,Espaço Público,FALSE,Pesquisa TK,,,"Av. Professor Gomes de Matos, 1041 - Jardim América",SER 4,-3.76187,-38.54624,Montese,C73
C73.1 AV. PROF. GOMES DE MATOS X R. DES. PRAXEDES,AMC,DB3,Antonio Luiz Junior Araujo,18/2020,11/12/2020,15/12/2025,SECUROS,1,,Espaço Público,FALSE,LPR,,,"R. Des. Praxedes, 906 - Parreão",SER 4,-3.7616249,-38.5463980,Bom Futuro,C73.1
C73.2 AV. PROF. GOMES DE MATOS X R. DES. PRAXEDES,AMC,DB3,Antonio Luiz Junior Araujo,18/2020,11/12/2020,15/12/2025,SECUROS,1,,Espaço Público,FALSE,LPR,,,"Av. Professor Gomes de Matos, 1060 - Jardim América",SER 4,-3.7619984,-38.5464195,Montese,C73.2
C74 R. GRAÇA ARANHA X AV. PRES. CASTELO BRANCO,AMC,DB3,Antonio Luiz Junior Araujo,18/2020,11/12/2020,15/12/2025,SECUROS,,1,Espaço Público,FALSE,Pesquisa TK,,,"Av. Pres. Castelo Branco, 4547 - Barra do Ceará",SER 1,-3.7067275634928505,-38.57271806827867,Barra do Ceará,C74
C75 AV. C X AV. MIN. ALBUQUERQUE LIMA,AMC,DB3,Antonio Luiz Junior Araujo,18/2020,11/12/2020,15/12/2025,SECUROS,,1,Espaço Público,FALSE,Pesquisa TK,,,"Av. C, 815 - Conj. Ceará",SER 11,-3.7662571255600965,-38.61087914151232,Conjunto Ceará I,C75
C76 AV. MOZART PINHEIRO LUCENA X AV. INDEPENDÊNCIA,AMC,DB3,Antonio Luiz Junior Araujo,18/2020,11/12/2020,15/12/2025,SECUROS,,1,Espaço Público,FALSE,Pesquisa TK,,,"Av. Mozart Pinheiro de Lucena, 2393 - Vila Velha",SER 3,-3.7250424052690994,-38.597643330347914,Quintino Cunha,C76
C77 AV. DOMINGOS OLIMPIO X R. BARAO DE ARATANHA,AMC,DB3,Antonio Luiz Junior Araujo,18/2020,11/12/2020,15/12/2025,SECUROS,,1,Espaço Público,FALSE,Pesquisa TK,,,"Av. Domingos Olímpio, 505 - Benfica",SER 4,-3.7375252025112533,-38.52804005315763,José Bonifácio,C77
C78 RUA DOS TABAJARAS X RUA DOS CARIRIS,AMC,DB3,Antonio Luiz Junior Araujo,18/2020,11/12/2020,15/12/2025,SECUROS,,1,Espaço Público,FALSE,Pesquisa TK,,,"R. dos Cariris, 10 - Praia de Iracema",SER 12,-3.719215869315692,-38.517189732336576,Praia de Iracema,C78
C79 R. GEN. SAMPAIO X R. LIBERATO BARROSO,AMC,DB3,Antonio Luiz Junior Araujo,18/2020,11/12/2020,15/12/2025,SECUROS,,1,Espaço Público,FALSE,Pesquisa TK,,,"R. Gen. Sampaio, 1035 - Centro",SER 12,-3.7274756203052206,-38.53105143885095,Centro,C79
C80 AV. I X AV. PRES. COSTA E SILVA,AMC,DB3,Antonio Luiz Junior Araujo,18/2020,11/12/2020,15/12/2025,SECUROS,,1,Espaço Público,FALSE,Pesquisa TK,,,"Av. Presidente Costa e Silva, 3495 - Mondubim",SER 8,-3.8236561558580515,-38.55020834452749,Prefeito José Walter,C80
C81 AV. DES. GONZAGA X R. PEDRO LUIS SOBRINHO,AMC,DB3,Antonio Luiz Junior Araujo,18/2020,11/12/2020,15/12/2025,SECUROS,,1,Espaço Público,FALSE,Pesquisa TK,,,"Av. Desembargador Gonzaga, 1725 - Cidade dos Funcionários",SER 6,-3.800315077909459,-38.497760279622014,Cidade dos Funcionários,C81
C82.1 AV. BEZERRA DE MENEZES X RUA JOSÉ PONTES,AMC,DB3,Antonio Luiz Junior Araujo,18/2020,11/12/2020,15/12/2025,SECUROS,1,,Espaço Público,FALSE,LPR,,,"R. José de Pontes, 8 - Parquelândia",SER 3,-3.736888002682855,-38.568403492056675,Parquelândia,C82.1
C82.2 AV. BEZERRA DE MENEZES X RUA JOSÉ PONTES,AMC,DB3,Antonio Luiz Junior Araujo,18/2020,11/12/2020,15/12/2025,SECUROS,1,,Espaço Público,FALSE,LPR,,,"Av. Bezerra de Menezes, 2642 - São Gerardo",SER 3,-3.7362355,-38.568205,Presidente Kennedy,C82.2
C82.3 AV. BEZERRA DE MENEZES X RUA JOSÉ PONTES,AMC,DB3,Antonio Luiz Junior Araujo,18/2020,11/12/2020,15/12/2025,SECUROS,1,,Espaço Público,FALSE,LPR,,,"Rod. Pres. Juscelino Kubitschek, 2701 - Farias Brito",SER 3,-3.7365241,-38.5685598,Presidente Kennedy,C82.3
C83 R. ALMIRANTE RUBIM X R. CESAR ROSAS,AMC,DB3,Antonio Luiz Junior Araujo,18/2020,11/12/2020,15/12/2025,SECUROS,,1,Espaço Público,FALSE,Pesquisa TK,,,"Rua Almirante Rubim, 1380 - Montese",SER 4,-3.76960286870612,-38.55612116249101,Itaoca,C83
C84 R. PE. VALDEVINO X R. SILVA PAULET,AMC,DB3,Antonio Luiz Junior Araujo,18/2020,11/12/2020,15/12/2025,SECUROS,,1,Espaço Público,FALSE,Pesquisa TK,,,"R. Padre Valdevino, 1840 - Dionisio Torres",SER 2,-3.7418959852212215,-38.50786205059399,Aldeota,C84
C85 AV. ALBERTO CRAVEIRO X R. PEDRO DANTAS,AMC,DB3,Antonio Luiz Junior Araujo,18/2020,11/12/2020,15/12/2025,SECUROS,,1,Espaço Público,FALSE,Pesquisa TK,,,"Av. Alberto Craveiro, 989 - Dias Macedo",SER 8,-3.7867708,-38.5170831,Dias Macedo,C85
C85.1 AV. ALBERTO CRAVEIRO X R. PEDRO DANTAS,AMC,DB3,Antonio Luiz Junior Araujo,18/2020,11/12/2020,15/12/2025,SECUROS,1,,Espaço Público,FALSE,LPR,,,"Av. Alberto Craveiro, 960 - Dias Macedo",SER 8,-3.786462417249995,-38.517180204251645,Dias Macedo,C85.1
C85.2 AV. ALBERTO CRAVEIRO X R. PEDRO DANTAS,AMC,DB3,Antonio Luiz Junior Araujo,18/2020,11/12/2020,15/12/2025,SECUROS,1,,Espaço Público,FALSE,LPR,,,"Av. Alberto Craveiro, 991 - Dias Macedo",SER 8,-3.7870569,-38.5171967,Dias Macedo,C85.2
C86 AV. PAULINO ROCHA X R. JORN. ANTONIO PONTES TAVARES,AMC,DB3,Antonio Luiz Junior Araujo,18/2020,11/12/2020,15/12/2025,SECUROS,,1,Espaço Público,FALSE,Pesquisa TK,,,"Av. Dep. Paulino Rocha, 1700 - Cajazeiras",SER 9,-3.811618730781765,-38.51154048426766,Cajazeiras,C86
C87 AV. ENGENHEIRO SANTANA JR. X R. TERTULIANO POTIGUARA,AMC,DB3,Antonio Luiz Junior Araujo,18/2020,11/12/2020,15/12/2025,SECUROS,,1,Espaço Público,FALSE,Pesquisa TK,,,"Av. Eng. Santana Jr., 2900 - Papicu",SER 7,-3.746800903057233,-38.48948903558675,Cocó,C87
C88 AV. EXPEDICIONÁRIOS X R. DESEMBARGADOR PRAXEDES,AMC,DB3,Antonio Luiz Junior Araujo,18/2020,11/12/2020,15/12/2025,SECUROS,,1,Espaço Público,FALSE,Pesquisa TK,,,"R. Des. Praxedes, 1547 - Vila União",SER 4,-3.763564606467216,-38.54091751517317,Parreão,C88
C89 AV. EDUARDO GIRÃO X R. DAMASCENO GIRÃO,AMC,DB3,Antonio Luiz Junior Araujo,18/2020,11/12/2020,15/12/2025,SECUROS,,1,Espaço Público,FALSE,Pesquisa TK,,,"Av. Eduardo Girão, 326 - Benfica",SER 4,-3.7491363573597596,-38.53924185631327,Jardim América,C89
C90 R. DR. PERGENTINO MAIA X R. CEL. GUILHERME ALENCAR,AMC,DB3,Antonio Luiz Junior Araujo,18/2020,11/12/2020,15/12/2025,SECUROS,,1,Espaço Público,FALSE,Pesquisa TK,,,"Rua Coronel Guilherme Alencar, 82 - Messejana",SER 6,-3.8309499254170807,-38.49175662046717,Messejana,C90
C91 AV. JOÃO PESSOA X R. DO GIRO,AMC,DB3,Antonio Luiz Junior Araujo,18/2020,11/12/2020,15/12/2025,SECUROS,,1,Espaço Público,FALSE,Pesquisa TK,,,"Av. João Pessoa, 7190 - Damas",SER 4,-3.7730588648758685,-38.56229622236387,Parangaba,C91
C92 R. 15 DE NOVEMBRO X R. ALBERTO MAGNO,AMC,DB3,Antonio Luiz Junior Araujo,18/2020,11/12/2020,15/12/2025,SECUROS,,1,Espaço Público,FALSE,Pesquisa TK,,,"R. Alberto Magno, 1839 - Montese",SER 4,-3.769963938959372,-38.553150312602156,Itaoca,C92
C93.1 AV. BEZERRA DE MENEZES,AMC,DB3,Antonio Luiz Junior Araujo,18/2020,11/12/2020,15/12/2025,SECUROS,1,,Espaço Público,FALSE,BICI,,,"Rod. Pres. Juscelino Kubitschek, 794 - Farias Brito",SER 3,-3.733016115748605,-38.55178404604177,São Gerardo,C93.1
C94.1 BEIRA MAR BICI 01,AMC,DB3,Antonio Luiz Junior Araujo,18/2020,11/12/2020,15/12/2025,SECUROS,1,,Espaço Público,FALSE,BICI,,,"Av. Beira Mar, 2800 - Meireles",SER 2,-3.724876,-38.4953611,Meireles,C94.1
C94.2 BEIRA MAR BICI 02,AMC,DB3,Antonio Luiz Junior Araujo,18/2020,11/12/2020,15/12/2025,SECUROS,1,,Espaço Público,FALSE,BICI,,,"Av. Beira Mar, 2800 - Meireles",SER 2,-3.7248778,-38.4955043,Meireles,C94.2
C95.1 AV. GOV. PARSIFAL BARROSO,AMC,DB3,Antonio Luiz Junior Araujo,18/2020,11/12/2020,15/12/2025,SECUROS,1,,Espaço Público,FALSE,LPR,BICI,,"Av. Dr. Theberge, 2854 - Pres. Kennedy",SER 3,-3.7276178,-38.5691855,Presidente Kennedy,C95.1
C97 R. BARAO DO RIO BRANCO X AV. CASTRO E SILVA,AMC,DB3,Antonio Luiz Junior Araujo,18/2020,11/12/2020,15/12/2025,SECUROS,,1,Espaço Público,FALSE,Pesquisa TK,,,"R. Castro e Silva, 231 - Centro",SER 12,-3.7237705150344906,-38.52747439131064,Centro,C97
C98 AV. DEP. PAULINO ROCHA X R. CEL. ZACARIAS JOSÉ DE FRANÇA,AMC,DB3,Antonio Luiz Junior Araujo,18/2020,11/12/2020,15/12/2025,SECUROS,,1,Espaço Público,FALSE,Pesquisa TK,,,"Av. Dep. Paulino Rocha, 156 - Cajazeiras",SER 9,-3.805313,-38.5082229,Cajazeiras,C98
C98.1 AV. DEP. PAULINO ROCHA X R. CEL. ZACARIAS JOSÉ DE FRANÇA,AMC,DB3,Antonio Luiz Junior Araujo,18/2020,11/12/2020,15/12/2025,SECUROS,1,,Espaço Público,FALSE,LPR,,,"Av. Dep. Paulino Rocha, 437 - Cajazeiras",SER 9,-3.8055888,-38.508152,Cajazeiras,C98.1
C98.2 AV. DEP. PAULINO ROCHA X R. CEL. ZACARIAS JOSÉ DE FRANÇA,AMC,DB3,Antonio Luiz Junior Araujo,18/2020,11/12/2020,15/12/2025,SECUROS,1,,Espaço Público,FALSE,LPR,,,"Av. Dep. Paulino Rocha, 154 - Cajazeiras",SER 9,-3.80508607,-38.508105,Cajazeiras,C98.2
C99 AV. GAL. OSÓRIO DE PAIVA X R. NEREU RAMOS,AMC,DB3,Antonio Luiz Junior Araujo,18/2020,11/12/2020,15/12/2025,SECUROS,,1,Espaço Público,FALSE,Pesquisa TK,,,"R. Nereu Ramos, 1202 - Parangaba",SER 4,-3.7820289505317026,-38.57679883017362,Parangaba,C99
C99.1 AV. GAL. OSÓRIO DE PAIVA X R. NEREU RAMOS,AMC,DB3,Antonio Luiz Junior Araujo,18/2020,11/12/2020,15/12/2025,SECUROS,1,,Espaço Público,FALSE,LPR,,,"Av. Gen. Osório de Paiva, 1640 - Parangaba",SER 4,-3.7820556979924977,-38.576626825698,Parangaba,C99.1
C99.2 AV. GAL. OSÓRIO DE PAIVA X R. NEREU RAMOS,AMC,DB3,Antonio Luiz Junior Araujo,18/2020,11/12/2020,15/12/2025,SECUROS,1,,Espaço Público,FALSE,LPR,,,"Av. Gen. Osório de Paiva, 1701 - Parangaba",SER 4,-3.7823215,-38.5770276,Vila Peri,C99.2
C99.3 AV. GAL. OSÓRIO DE PAIVA X R. NEREU RAMOS,AMC,DB3,Antonio Luiz Junior Araujo,18/2020,11/12/2020,15/12/2025,SECUROS,1,,Espaço Público,FALSE,LPR,,,"R. Nereu Ramos, 1207 - Parangaba",SER 4,-3.7823637,-38.5765234,Parangaba,C99.3
C100 R. MONS. CATÃO X R. BENI DE CARVALHO,AMC,DB3,Antonio Luiz Junior Araujo,18/2020,11/12/2020,15/12/2025,SECUROS,,1,Espaço Público,FALSE,Pesquisa TK,,,"R. Beni Carvalho, 913 - Dionísio Torres",SER 2,-3.746644,-38.4932325,Dionísio Torres,C100
C101 R. ERICO MOTA X AV. JOVITA FEITOSA,AMC,DB3,Antonio Luiz Junior Araujo,18/2020,11/12/2020,15/12/2025,SECUROS,,1,Espaço Público,FALSE,Pesquisa TK,,,"R. Érico Mota, 546 - Parquelândia",SER 3,-3.740999675606443,-38.56176272687059,Amadeu Furtado,C101
C102 AV. JOSÉ BASTOS X R. ALEXANDRE BARAÚNA,AMC,DB3,Antonio Luiz Junior Araujo,18/2020,11/12/2020,15/12/2025,SECUROS,,1,Espaço Público,FALSE,Pesquisa TK,,,"Av. José Bastos, 3414 - Damas",SER 3,-3.7495017,-38.5499799,Rodolfo Teófilo,C102
C102.1 AV. JOSÉ BASTOS X R. ALEXANDRE BARAÚNA,AMC,DB3,Antonio Luiz Junior Araujo,18/2020,11/12/2020,15/12/2025,SECUROS,1,,Espaço Público,FALSE,LPR,,,"Av. José Bastos, 3304 - Jacarecanga",SER 3,-3.7492016,-38.5496784,Rodolfo Teófilo,C102.1
C102.2 AV. JOSÉ BASTOS X R. ALEXANDRE BARAÚNA,AMC,DB3,Antonio Luiz Junior Araujo,18/2020,11/12/2020,15/12/2025,SECUROS,1,,Espaço Público,FALSE,LPR,,,"Av. José Bastos, 3484 - Jacarecanga",SER 3,-3.7497239,-38.5502026,Rodolfo Teófilo,C102.2
C103 AV. JOSÉ BASTOS X AV. HUMBERTO MONTE,AMC,DB3,Antonio Luiz Junior Araujo,18/2020,11/12/2020,15/12/2025,SECUROS,,1,Espaço Público,FALSE,Pesquisa TK,,,"Av. José Bastos, 4319 - Damas",SER 4,-3.7550536,-38.5553761,Damas,C103
C103.1 AV. JOSÉ BASTOS X AV. HUMBERTO MONTE,AMC,DB3,Antonio Luiz Junior Araujo,18/2020,11/12/2020,15/12/2025,SECUROS,1,,Espaço Público,FALSE,LPR,,,"Av. José Bastos, 4300 - Rodolfo Teófilo",SER 3,-3.7546584,-38.5551377,Rodolfo Teófilo,C103.1
C103.2 AV. JOSÉ BASTOS X AV. HUMBERTO MONTE,AMC,DB3,Antonio Luiz Junior Araujo,18/2020,11/12/2020,15/12/2025,SECUROS,1,,Espaço Público,FALSE,LPR,,,"Av. José Bastos, 4326 - Damas",SER 11,-3.7551615,-38.5556576,Bela Vista,C103.2
C103.3 AV. JOSÉ BASTOS X AV. HUMBERTO MONTE,AMC,DB3,Antonio Luiz Junior Araujo,18/2020,11/12/2020,15/12/2025,SECUROS,1,,Espaço Público,FALSE,LPR,,,"Av. Humberto Monte, 254 - Panamericano",SER 11,-3.7547287,-38.555753,Bela Vista,C103.3
C104 AV. RAUL BARBOSA X AV. MURILO BORGES,AMC,DB3,Antonio Luiz Junior Araujo,18/2020,11/12/2020,15/12/2025,SECUROS,,1,Espaço Público,FALSE,Pesquisa TK,,,"Av. Governador Raul Barbosa, 351 - São João do Tauape",SER 6,-3.7641084,-38.5086831,Alto da Balança,C104
C104.1 AV. RAUL BARBOSA X AV. MURILO BORGES,AMC,DB3,Antonio Luiz Junior Araujo,18/2020,11/12/2020,15/12/2025,SECUROS,1,,Espaço Público,FALSE,LPR,,,"Rua Capitão Aragão, 970 - Alto da Balança",SER 6,-3.7641957776538053,-38.50941710430572,Alto da Balança,C104.1
C104.2 AV. RAUL BARBOSA X AV. MURILO BORGES,AMC,DB3,Antonio Luiz Junior Araujo,18/2020,11/12/2020,15/12/2025,SECUROS,1,,Espaço Público,FALSE,LPR,,,"Av. General Murilo Borges, 15 - Eng. Luciano Cavalcante",SER 6,-3.7640113512335285,-38.507734637322656,Alto da Balança,C104.2
C104.3 AV. RAUL BARBOSA X AV. MURILO BORGES,AMC,DB3,Antonio Luiz Junior Araujo,18/2020,11/12/2020,15/12/2025,SECUROS,1,,Espaço Público,FALSE,LPR,,,"Av. Governador Raul Barbosa, 5316 - Alto da Balança",SER 6,-3.7654168596375825,-38.50881109803112,Alto da Balança,C104.3
C104.4 AV. RAUL BARBOSA X AV. MURILO BORGES,AMC,DB3,Antonio Luiz Junior Araujo,18/2020,11/12/2020,15/12/2025,SECUROS,1,,Espaço Público,FALSE,LPR,,,"Viaduto Evandro Ayres de Moura, 5072 - Alto da Balança",SER 6,-3.7632119517701437,-38.508585341482295,Alto da Balança,C104.4
C105 AV. FREI CIRILO X AV. MININSTRO JOSE AMERICO,AMC,DB3,Antonio Luiz Junior Araujo,18/2020,11/12/2020,15/12/2025,SECUROS,,1,Espaço Público,FALSE,Pesquisa TK,,,"Av. Frei Cirilo, 172 - Messejana",SER 9,-3.812826,-38.4994604,Cajazeiras,C105
C106 AV. ENGENHEIRO SANTA JUNIOR X R. BENTO ALBUQUERQUE,AMC,DB3,Antonio Luiz Junior Araujo,18/2020,11/12/2020,15/12/2025,SECUROS,,1,Espaço Público,FALSE,Pesquisa TK,,,"Av. Eng. Santana Jr., 2027 - Cocó",SER 7,-3.7425872,-38.4864593,Cocó,C106
C106.1 AV. ENGENHEIRO SANTA JUNIOR X R. BENTO ALBUQUERQUE,AMC,DB3,Antonio Luiz Junior Araujo,18/2020,11/12/2020,15/12/2025,SECUROS,1,,Espaço Público,FALSE,Pesquisa TK,,,"Av. Eng. Santana Jr., 2328 - Cocó",SER 7,-3.7425555398771198,-38.4864281396883,Cocó,C106.1
C107 AV. VIANA WEYNE 627,AMC,DB3,Antonio Luiz Junior Araujo,18/2020,11/12/2020,15/12/2025,SECUROS,,1,Espaço Público,FALSE,Pesquisa TK,,,"Av. Viena Weyne, 580 - Cambeba",SER 6,-3.8013293,-38.4887473,Cambeba,C107
C108 R. BENTO ALBIQUERQUE 1475,AMC,DB3,Antonio Luiz Junior Araujo,18/2020,11/12/2020,15/12/2025,SECUROS,,1,Espaço Público,FALSE,Pesquisa TK,,,"R. Bento Albuquerque, 1475 - Cocó",SER 7,-3.7460631,-38.4758469,Cocó,C108
C109 R. DR JOSE FURTADO 1400,AMC,DB3,Antonio Luiz Junior Araujo,18/2020,11/12/2020,15/12/2025,SECUROS,,1,Espaço Público,FALSE,Pesquisa TK,,,"Rua Dr. José Furtado, 1400 - Cambeba",SER 6,-3.7962771,-38.4882029,Cidade dos Funcionários,C109
"C110 AV. CARNEIRO DE MENDOCA, 1370",AMC,DB3,Antonio Luiz Junior Araujo,18/2020,11/12/2020,15/12/2025,SECUROS,,1,Espaço Público,FALSE,Pesquisa TK,,,"Av. Carneiro de Mendonça, 1354 - Demócrito Rocha",SER 11,-3.761850944592446,-38.57082480091679,Demócrito Rocha,C110
C111 AV. VICENTE DE CASTRO X PGT COMPANIA DAS DOCAS,AMC,DB3,Antonio Luiz Junior Araujo,18/2020,11/12/2020,15/12/2025,SECUROS,,1,Espaço Público,FALSE,Pesquisa TK,,,"Av. Vicente de Castro, 6074 - Cais do Porto",SER 2,-3.711656,-38.4723412,Cais do Porto,C111
C112 R. DR. JOSE ROBERTO SALES X AV. RAD. JOSE LIMA VERDE,AMC,DB3,Antonio Luiz Junior Araujo,18/2020,11/12/2020,15/12/2025,SECUROS,,1,Espaço Público,FALSE,Pesquisa TK,,,"R. Dr. José Roberto Sales, 879 - Barra do Ceará",SER 1,-3.6944403,-38.5865799,Barra do Ceará,C112
"C113.1 AV. BEIRA MAR, 814",AMC,DB3,Antonio Luiz Junior Araujo,18/2020,11/12/2020,15/12/2025,SECUROS,1,,Espaço Público,FALSE,LPR,,,"Av. Beira Mar, 814 - Praia de Iracema",SER 12,-3.7199764,-38.5124902,Praia de Iracema,C113.1
C114 AV. JOÃO PESSOA X R. PROF. COSTA MENDES,AMC,DB3,Antonio Luiz Junior Araujo,18/2020,11/12/2020,15/12/2025,SECUROS,,1,Espaço Público,FALSE,Pesquisa TK,,,"Av. João Pessoa, 4495 - Damas",SER 4,-3.7523078,-38.5494673,Damas,C114
C114.1 AV. JOÃO PESSOA X R. PROF. COSTA MENDES,AMC,DB3,Antonio Luiz Junior Araujo,18/2020,11/12/2020,15/12/2025,SECUROS,1,,Espaço Público,FALSE,LPR,,,"Av. João Pessoa, 4552 - Damas",SER 4,-3.7526976,-38.5496288,Damas,C114.1
C115 AV. AV. JOAO PESSOA X R. PADRE CICERO,AMC,DB3,Antonio Luiz Junior Araujo,18/2020,11/12/2020,15/12/2025,SECUROS,,1,Espaço Público,FALSE,Pesquisa TK,,,"Av. José Jatahy, 125 - Rodolfo Teófilo",SER 4,-3.7457844750439495,-38.54355131069843,Benfica,C115
C115.1 AV. AV. JOAO PESSOA X R. PADRE CICERO,AMC,DB3,Antonio Luiz Junior Araujo,18/2020,11/12/2020,15/12/2025,SECUROS,1,,Espaço Público,FALSE,LPR,,,"Av. José Jatahy, 141 - Rodolfo Teófilo",SER 4,-3.7454862,-38.54366608,Benfica,C115.1
C115.2 AV. AV. JOAO PESSOA X R. PADRE CICERO,AMC,DB3,Antonio Luiz Junior Araujo,18/2020,11/12/2020,15/12/2025,SECUROS,1,,Espaço Público,FALSE,LPR,,,"Av. João Pessoa, 3557 - Benfica",SER 4,-3.7459979,-38.54359820,Benfica,C115.2
C116 AV. LINEU MACHADO X AV. FERNANDES TAVORA,AMC,DB3,Antonio Luiz Junior Araujo,18/2020,11/12/2020,15/12/2025,SECUROS,,1,Espaço Público,FALSE,Pesquisa TK,,,"Av. Lineu Machado, 561 - Jóquei Clube",SER 11,-3.765341028548221,-38.57649568157564,Jóquei Clube,C116
C116.1 AV. LINEU MACHADO X AV. FERNANDES TAVORA,AMC,DB3,Antonio Luiz Junior Araujo,18/2020,11/12/2020,15/12/2025,SECUROS,1,,Espaço Público,FALSE,LPR,,,"Av. Lineu Machado, 593 - Jóquei Clube",SER 11,-3.7655783,-38.576673,Jóquei Clube,C116.1
C116.2 AV. LINEU MACHADO X AV. FERNANDES TAVORA,AMC,DB3,Antonio Luiz Junior Araujo,18/2020,11/12/2020,15/12/2025,SECUROS,1,,Espaço Público,FALSE,LPR,,,"Av. Lineu Machado, 500 - Jóquei Clube",SER 11,-3.7648304,-38.5763554,Jóquei Clube,C116.2
C117 AV. GODOFREDO MACIEL X R. NEREU RAMOS,AMC,DB3,Antonio Luiz Junior Araujo,18/2020,11/12/2020,15/12/2025,SECUROS,,1,Espaço Público,FALSE,Pesquisa TK,,,"Av. Godofredo Maciel, 1183 - Parangaba",SER 4,-3.787115650236121,-38.566829707004246,Parangaba,C117
C117.1 AV. GODOFREDO MACIEL X R. NEREU RAMOS,AMC,DB3,Antonio Luiz Junior Araujo,18/2020,11/12/2020,15/12/2025,SECUROS,1,,Espaço Público,FALSE,LPR,,,"Av. Godofredo Maciel, 1229 - Maraponga",SER 10,-3.7876098,-38.5668073,Maraponga,C117.1
C117.2 AV. GODOFREDO MACIEL X R. NEREU RAMOS,AMC,DB3,Antonio Luiz Junior Araujo,18/2020,11/12/2020,15/12/2025,SECUROS,1,,Espaço Público,FALSE,LPR,,,"Av. Godofredo Maciel, 1234 - Maraponga",SER 4,-3.7868176,-38.5668276,Parangaba,C117.2
C118 AV. JOAO PESSOA X R. DES. PRAXEDES,AMC,DB3,Antonio Luiz Junior Araujo,18/2020,11/12/2020,15/12/2025,SECUROS,,1,Espaço Público,FALSE,Pesquisa TK,,,"Av. João Pessoa, 5190 - Damas",SER 4,-3.756861048244168,-38.55353476366039,Damas,C118
C119 AV. VITAL BRASIL X R. VERBENA,AMC,DB3,Antonio Luiz Junior Araujo,18/2020,11/12/2020,15/12/2025,SECUROS,,1,Espaço Público,FALSE,Pesquisa TK,,,"R. Vital Brasil, 850 - Bonsucesso",SER 5,-3.7806111,-38.58857798,Bonsucesso,C119
C120 AV. DOM MANUEL X R. ROCHA LIMA,AMC,DB3,Antonio Luiz Junior Araujo,18/2020,11/12/2020,15/12/2025,SECUROS,,1,Espaço Público,FALSE,Pesquisa TK,,,"Av. Dom Manuel, 1351 - Centro",SER 12,-3.7359312401805043,-38.523489720208616,Centro,C120
C121 AV. SEN.VIRGILIO TAVORA X AV. ANTONIO JUSTA,AMC,DB3,Antonio Luiz Junior Araujo,18/2020,11/12/2020,15/12/2025,SECUROS,,1,Espaço Público,FALSE,Pesquisa TK,,,"Av. Antônio Justa, 3363 - Meireles",SER 2,-3.728709119922656,-38.490855195911635,Meireles,C121
C122 R. ANSELMO NOGUEIRA X R EMILIO DE MENEZES,AMC,DB3,Antonio Luiz Junior Araujo,18/2020,11/12/2020,15/12/2025,SECUROS,,1,Espaço Público,FALSE,Pesquisa TK,,,"R. Emílio de Menezes, 616 - Bonsucesso",SER 5,-3.7817366,-38.587313,Bonsucesso,C122
C123 AV. DESEMBARGADOR MOREIRA X R. CANUTO DE AGUIAR,AMC,DB3,Antonio Luiz Junior Araujo,18/2020,11/12/2020,15/12/2025,SECUROS,,1,Espaço Público,FALSE,Pesquisa TK,,,"Av. Des. Moreira, 399 - Aldeota",SER 2,-3.7302861,-38.4963959,Meireles,C123
C124 AV. GODOFREDO MACIEL X R. GERMANO FRANCK,AMC,DB3,Antonio Luiz Junior Araujo,18/2020,11/12/2020,15/12/2025,SECUROS,,1,Espaço Público,FALSE,Pesquisa TK,,,"Av. Godofredo Maciel, 375 - Parangaba",SER 4,-3.7796308,-38.5647505,Parangaba,C124
C125 R. PROFESSOR OTAVIO LOBO X AV. PADRE ANTONIO TOMAS,AMC,DB3,Antonio Luiz Junior Araujo,18/2020,11/12/2020,15/12/2025,SECUROS,,1,Espaço Público,FALSE,Pesquisa TK,,,"R. Professor Otávio Lobo, 755 - Cocó",SER 7,-3.7465226389328863,-38.4797685288866,Cocó,C125
C125.1 R. PROFESSOR OTAVIO LOBO X AV. PADRE ANTONIO TOMAS,AMC,DB3,Antonio Luiz Junior Araujo,18/2020,11/12/2020,15/12/2025,SECUROS,1,,Espaço Público,FALSE,LPR,,,"Av. Padre Antônio Tomás, 3640 - Cocó",SER 7,-3.7468624,-38.4798318,Cocó,C125.1
C125.2 R. PROFESSOR OTAVIO LOBO X AV. PADRE ANTONIO TOMAS,AMC,DB3,Antonio Luiz Junior Araujo,18/2020,11/12/2020,15/12/2025,SECUROS,1,,Espaço Público,FALSE,LPR,,,"Av. Padre Antônio Tomás, 3614 - Cocó",SER 7,-3.7464511,-38.4802644,Cocó,C125.2
C126 R. CONDE DEU X R. DR. JOÃO MOREIRA,AMC,DB3,Antonio Luiz Junior Araujo,18/2020,11/12/2020,15/12/2025,SECUROS,,1,Espaço Público,FALSE,Pesquisa TK,,,"Av. Alberto Nepomuceno, 392 - Centro",SER 12,-3.7237588,-38.5247661,Centro,C126
C127 AV. AUGUSTO DOS ANJOS X R. EMILIO DE MENEZES,AMC,DB3,Antonio Luiz Junior Araujo,18/2020,11/12/2020,15/12/2025,SECUROS,,1,Espaço Público,FALSE,Pesquisa TK,,,AV. AUGUSTO DOS ANJOS X R. EMILIO DE MENEZES,SER 5,-3.7833285,-38.5820362,Bonsucesso,C127
C129.1 RUA CONEGO DE CASTRO 1780,AMC,DB3,Antonio Luiz Junior Araujo,18/2020,11/12/2020,15/12/2025,SECUROS,1,,Espaço Público,FALSE,LPR,,,"R. Cônego de Castro, 1780 - Vila Peri",SER 4,-3.7868815,-38.5750966,Vila Peri,C129.1
C129.2 RUA CONEGO DE CASTRO 1780,AMC,DB3,Antonio Luiz Junior Araujo,18/2020,11/12/2020,15/12/2025,SECUROS,1,,Espaço Público,FALSE,LPR,,,"R. Cônego de Castro, 1770 - Vila Peri",SER 4,-3.7864507,-38.5748413,Vila Peri,C129.2
C130 AV. 13 DE MAIO X AV. JOSE JATAHY,AMC,DB3,Antonio Luiz Junior Araujo,18/2020,11/12/2020,15/12/2025,SECUROS,,1,Espaço Público,FALSE,Pesquisa TK,,,"Av. José Jatahy, 1732 - Parque Araxá",SER 3,-3.7372829,-38.5439830,Parque Araxá,C130
C131 AV. PRESIDENTE CASTELO BRANCO X AV. PASTEUR,AMC,DB3,Antonio Luiz Junior Araujo,18/2020,11/12/2020,15/12/2025,SECUROS,,1,Espaço Público,FALSE,Pesquisa TK,,,"Av. Pasteur, 523 - Altos",SER 1,-3.7111986,-38.5587306,Pirambu,C131
C132.1 AV. BEZERRA DE MENEZES X AV. JOSE JATAHY,AMC,DB3,Antonio Luiz Junior Araujo,18/2020,11/12/2020,15/12/2025,SECUROS,1,,Espaço Público,FALSE,LPR,,,"Av. José Jatahy, 1200 - Jacarecanga",SER 3,-3.7311946,-38.5450646,Farias Brito,C132.1
C133 AV. LUCIANO CARNEIRO X RUA DESEMBARGADOR PRAXEDES,AMC,DB3,Antonio Luiz Junior Araujo,18/2020,11/12/2020,15/12/2025,SECUROS,,1,Espaço Público,FALSE,Pesquisa TK,,,"Av. Luciano Carneiro, 1936 - Vila União",SER 4,-3.7650061,-38.5367260,Vila União,C133
C134.1 AV. EDUARDO GIRAO X AV. EXPEDICIONARIOS,AMC,DB3,Antonio Luiz Junior Araujo,18/2020,11/12/2020,15/12/2025,SECUROS,1,,Espaço Público,FALSE,LPR,,,"Av. dos Expedicionários, 3599 - Fátima",SER 4,-3.7507025,-38.5364857,Fátima,C134.1
C135 AV. ROGACIANO LEITE X R. PADRE FRANCISCO PITA,AMC,DB3,Antonio Luiz Junior Araujo,18/2020,11/12/2020,15/12/2025,SECUROS,,1,Espaço Público,FALSE,Pesquisa TK,,,"Av. Rogaciano Leite, 2606 - Guararapes",SER 6,-3.7811035,-38.5019278,Jardim das Oliveiras,C135
C136.1 AV. FERNANDES TAVORA X RUA VITORIA,AMC,DB3,Antonio Luiz Junior Araujo,18/2020,11/12/2020,15/12/2025,SECUROS,1,,Espaço Público,FALSE,LPR,,,"Av. Senador Fernandes Távora, 1442 - Henrique Jorge",SER 11,-3.7603239,-38.5856568,Henrique Jorge,C136.1
C137 AV. CORONEL CARVALHO X AV. MAJOR ASSIS,AMC,DB3,Antonio Luiz Junior Araujo,18/2020,11/12/2020,15/12/2025,SECUROS,,1,Espaço Público,FALSE,Pesquisa TK,,,"Av. Cel. Carvalho, 2400 - Barra do Ceará",SER 1,-3.7236561,-38.5862907,Jardim Iracema,C137
C138 AV. FRANCISCO SA X AV. THEBERGE,AMC,DB3,Antonio Luiz Junior Araujo,18/2020,11/12/2020,15/12/2025,SECUROS,,1,Espaço Público,FALSE,Pesquisa TK,,,"Av. Dr. Theberge, 1486 - Cristo Redentor",SER 1,-3.7147381,-38.5650627,Álvaro Weyne,C138
C139 AV. FERNANDES TAVORA X AV. HERIBALDO COSTA,AMC,DB3,Antonio Luiz Junior Araujo,18/2020,11/12/2020,15/12/2025,SECUROS,,1,Espaço Público,FALSE,Pesquisa TK,,,"Av. Senador Fernandes Távora, 1299 - Henrique Jorge",SER 11,-3.7611046,-38.5843473,Henrique Jorge,C139
C140 AV. DEPUTADO OSVALDO STUDART (RODOVIARIA),AMC,DB3,Antonio Luiz Junior Araujo,18/2020,11/12/2020,15/12/2025,SECUROS,,1,Espaço Público,FALSE,Pesquisa TK,,,"Av. Deputado Oswaldo Studart, 769 - Fátima",SER 4,-3.756931119741978,-38.53090646011835,Fátima,C140
C141 AV. GENERAL SAMPAIO X R. SÃO PAULO,AMC,DB3,Antonio Luiz Junior Araujo,18/2020,11/12/2020,15/12/2025,SECUROS,,1,Espaço Público,FALSE,Pesquisa TK,,,"R. Gen. Sampaio, 750 - Centro",SER 12,-3.725200288429936,-38.53021481315669,Centro,C141
C142 RUA CLARINDO DE QUEIROZ X R. TEREZA CRISTINA,AMC,DB3,Antonio Luiz Junior Araujo,18/2020,11/12/2020,15/12/2025,SECUROS,,1,Espaço Público,FALSE,Pesquisa TK,,,"R. Gen. Clarindo de Queiroz, 1544 - Centro",SER 12,-3.7302484871355848,-38.537688121827365,Centro,C142
C143 AV. CLOVIS ARRAIS MAIA X R.PROF. MOZART SOLON,AMC,DB3,Antonio Luiz Junior Araujo,18/2020,11/12/2020,15/12/2025,SECUROS,,1,Espaço Público,FALSE,Pesquisa TK,,,"Av. Zezé Diogo, 3556 - Antonio Diogo",SER 7,-3.737623678785748,-38.45421804692356,Praia do Futuro I,C143
C144 AV. FILOMENO GOMES X AV. PRES. CASTELO BRANCO,AMC,DB3,Antonio Luiz Junior Araujo,18/2020,11/12/2020,15/12/2025,SECUROS,,1,Espaço Público,FALSE,Pesquisa TK,,,"Av. Pres. Castelo Branco, 1573 - Jacarecanga",SER 1,-3.715500043372553,-38.542054909525234,Jacarecanga,C144
C145 RUA JOSÉ HIPÓLITO X CORONEL FRANCISCO PEREIRA,AMC,DB3,Antonio Luiz Junior Araujo,18/2020,11/12/2020,15/12/2025,SECUROS,,1,Espaço Público,FALSE,Pesquisa TK,,,"R. José Hipólito, 250 - Messejana",SER 6,-3.832941750141612,-38.49311745779471,Messejana,C145
C146 RUA PEDRO I X R. GENERAL SAMPAIO,AMC,DB3,Antonio Luiz Junior Araujo,18/2020,11/12/2020,15/12/2025,SECUROS,,1,Espaço Público,FALSE,Pesquisa TK,,,"R. Gen. Sampaio, 1329 - Centro",SER 12,-3.7301821787227,-38.531714651805295,Centro,C146
C147 RUA PROF. COSTA MENDES X R. PADRE JOÃO PIAMARTA,AMC,DB3,Antonio Luiz Junior Araujo,18/2020,11/12/2020,15/12/2025,SECUROS,,1,Espaço Público,FALSE,Pesquisa TK,,,"R. Prof. Costa Mendes, 25 - Bom Futuro",SER 4,-3.758733960175806,-38.54189058924409,Parreão,C147
C148 RUA ISAC AMARAL X AV. RAUL BARBOSA,AMC,DB3,Antonio Luiz Junior Araujo,18/2020,11/12/2020,15/12/2025,SECUROS,,1,Espaço Público,FALSE,Pesquisa TK,,,"Av. Governador Raul Barbosa, 3003 - São João do Tauape",SER 2,-3.753126688422132,-38.50365165721408,Tauape,C148
C149 RUA MARIA TOMÁSIA X R. BARBOSA DE FREITAS,AMC,DB3,Antonio Luiz Junior Araujo,18/2020,11/12/2020,15/12/2025,SECUROS,,1,Espaço Público,FALSE,Pesquisa TK,,,"R. Barbosa de Freitas, 1115 - Meireles",SER 2,-3.7355872641941508,-38.497100786755354,Aldeota,C149
C150 RUA ZENILDO ALMADA X AV. DR. THEBERGE,AMC,DB3,Antonio Luiz Junior Araujo,18/2020,11/12/2020,15/12/2025,SECUROS,,1,Espaço Público,FALSE,Pesquisa TK,,,"Av. Dr. Theberge, 2669 - Pres. Kennedy",SER 3,-3.725490664546292,-38.56837581587301,Presidente Kennedy,C150
C151 AV. PROF. GOMES DE MATOS X AV. PROF. COSTA MENDES,AMC,DB3,Antonio Luiz Junior Araujo,18/2020,11/12/2020,15/12/2025,SECUROS,,1,Espaço Público,FALSE,Pesquisa TK,,,"Av. Professor Gomes de Matos, 505 - Jardim América",SER 4,-3.7581213513629192,-38.5429263286525,Parreão,C151
C152 AV. FILOMENO GOMES X RUA MARIA LUIZA,AMC,DB3,Antonio Luiz Junior Araujo,18/2020,11/12/2020,15/12/2025,SECUROS,,1,Espaço Público,FALSE,Pesquisa TK,,,"Av. Filomeno Gomes, 422 - Jacarecanga",SER 1,-3.7185013490938004,-38.54171407749041,Jacarecanga,C152
C153 RUA CEL. FRANCISCO PEREIRA X R. JOAQUIM FELÍCIO,AMC,DB3,Antonio Luiz Junior Araujo,18/2020,11/12/2020,15/12/2025,SECUROS,,1,Espaço Público,FALSE,Pesquisa TK,,,"Rua Coronel Francisco Pereira, 81 - Messejana",SER 6,-3.82998050499425,-38.49263125229216,Messejana,C153
C154 AV. GAL. OSÓRIO DE PAIVA X R. AGAMENON,AMC,DB3,Antonio Luiz Junior Araujo,18/2020,11/12/2020,15/12/2025,SECUROS,,1,Espaço Público,FALSE,Pesquisa TK,,,"Av. Gen. Osório de Paiva, 3367 - Parangaba",SER 5,-3.790376583861463,-38.58811564641294,Bonsucesso,C154
C155 RUA BATISTA DE OLIVEIRA X AV. SANTOS DUMONT,AMC,DB3,Antonio Luiz Junior Araujo,18/2020,11/12/2020,15/12/2025,SECUROS,,1,Espaço Público,FALSE,Pesquisa TK,,,"R. Batista de Oliveira, 706 - Papicu",SER 7,-3.7423276,-38.4797806,Cocó,C155
C156 AV. CARAPINIMA X R. JUVENAL GALENO,AMC,DB3,Antonio Luiz Junior Araujo,18/2020,11/12/2020,15/12/2025,SECUROS,,1,Espaço Público,FALSE,Pesquisa TK,,,"R. Juvenal Galeno, 490 - Benfica",SER 4,-3.7389071886608605,-38.53938574648105,Benfica,C156
C157 AV. DR. SILAS MUNGUBA X R. MALMEQUER,AMC,DB3,Antonio Luiz Junior Araujo,18/2020,11/12/2020,15/12/2025,SECUROS,,1,Espaço Público,FALSE,Pesquisa TK,,,"Av. Dr. Silas Munguba, 3920 - Itaperi",SER 8,-3.7910374582874695,-38.538654868139965,Itaperi,C157
C158 AV. A X AV. H (CONJ. CEARA),AMC,DB3,Antonio Luiz Junior Araujo,18/2020,11/12/2020,15/12/2025,SECUROS,,1,Espaço Público,FALSE,Pesquisa TK,,,"Av. H, 791 - Conj. Ceará I",SER 11,-3.77512228396405,-38.6057807633617,Conjunto Ceará II,C158
C159 RUA IDELFONSO ALBANO X RUA ROCHA LIMA,AMC,DB3,Antonio Luiz Junior Araujo,18/2020,11/12/2020,15/12/2025,SECUROS,,1,Espaço Público,FALSE,Pesquisa TK,,,"R. Rocha Lima, 1155 - Aldeota",SER 2,-3.7386532358923015,-38.515090817681546,Aldeota,C159
C160 AV. AGUANAMBI X RUA CORONEL SOLON,AMC,DB3,Antonio Luiz Junior Araujo,18/2020,11/12/2020,15/12/2025,SECUROS,,1,Espaço Público,FALSE,Pesquisa TK,,,"Av. Aguanambi, 733 - José Bonifacio",SER 4,-3.742923688237863,-38.525637011871,Fátima,C160
C161 AV. CARNEIRO DE MENDONÇA X R PEDRO MUNIZ,AMC,DB3,Antonio Luiz Junior Araujo,18/2020,11/12/2020,15/12/2025,SECUROS,,1,Espaço Público,FALSE,Pesquisa TK,,,"R. Pedro Muniz, 401 - Demócrito Rocha",SER 11,-3.765575672080571,-38.56356989991833,Demócrito Rocha,C161
C162 R.PRINCESA ISABEL X R.LIBERATO BARROSO,AMC,DB3,Antonio Luiz Junior Araujo,18/2020,11/12/2020,15/12/2025,SECUROS,,1,Espaço Público,FALSE,Pesquisa TK,,,"R. Princesa Isabel, 597 - Centro",SER 12,-3.7261546533121073,-38.535309886378734,Centro,C162
C163 AV. PE. ANTÔNIO TOMÁS X RUA CORONEL JUCÁ,AMC,DB3,Antonio Luiz Junior Araujo,18/2020,11/12/2020,15/12/2025,SECUROS,,1,Espaço Público,FALSE,Pesquisa TK,,,"Av. Padre Antônio Tomás, 2157 - Aldeota",SER 2,-3.7422759,-38.492802,Aldeota,C163
C164 AV. SANTOS DUMONT X AV. DESEMBARGADOR MOREIRA,AMC,DB3,Antonio Luiz Junior Araujo,18/2020,11/12/2020,15/12/2025,SECUROS,,1,Espaço Público,FALSE,Pesquisa TK,,,"Av. Santos Dumont, 2889 - Aldeota",SER 2,-3.7361107808783953,-38.49843423396806,Aldeota,C164
C165 AV. ANTÔNIO SALES X R. TIBÚRCIO CAVALCANTE,AMC,DB3,Antonio Luiz Junior Araujo,18/2020,11/12/2020,15/12/2025,SECUROS,,1,Espaço Público,FALSE,Pesquisa TK,,,"Av. Antônio Sales, 2160 - Joaquim Távora",SER 2,-3.744683969994526,-38.50468125810336,Dionísio Torres,C165
